{"slot_id": 258135, "dep": "CYYC", "arr": "ENGM", "ctot": "11:49", "route": [{"name": "CYYC", "lat": 51.113887786865234, "lon": -114.02027893066406}, {"name": "SAXOL", "lat": 51.46694444, "lon": -113.6325}, {"name": "54N10", "lat": 54.0, "lon": -110.0}, {"name": "PETMA", "lat": 56.09280556, "lon": -106.05186111}, {"name": "6094N", "lat": 60.0, "lon": -94.0}, {"name": "6280N", "lat": 62.0, "lon": -80.0}, {"name": "VODEK", "lat": 63.83333333, "lon": -70.0}, {"name": "NALDI", "lat": 64.5, "lon": -63.0}, {"name": "AVPUT", "lat": 65.03333333, "lon": -60.0}, {"name": "6650N", "lat": 66.0, "lon": -50.0}, {"name": "6640N", "lat": 66.0, "lon": -40.0}, {"name": "6530N", "lat": 65.0, "lon": -30.0}, {"name": "6520N", "lat": 65.0, "lon": -20.0}, {"name": "IPTON", "lat": 62.0, "lon": 0.0}, {"name": "DOPUX", "lat": 60.92915556, "lon": 7.52170833}, {"name": "ADOPI", "lat": 60.32361111, "lon": 9.38333333}, {"name": "ENGM", "lat": 60.20277786254883, "lon": 11.08388900756836}], "facilities": ["CZEG", "BGW", "BIRD", "ENSV-16", "ENSV-17", "ENOS-6"]}
{"slot_id": 258136, "dep": "CYYC", "arr": "ENGM", "ctot": "11:57", "route": [{"name": "CYYC", "lat": 51.113887786865234, "lon": -114.02027893066406}, {"name": "SAXOL", "lat": 51.46694444, "lon": -113.6325}, {"name": "54N10", "lat": 54.0, "lon": -110.0}, {"name": "PETMA", "lat": 56.09280556, "lon": -106.05186111}, {"name": "6094N", "lat": 60.0, "lon": -94.0}, {"name": "6280N", "lat": 62.0, "lon": -80.0}, {"name": "VODEK", "lat": 63.83333333, "lon": -70.0}, {"name": "NALDI", "lat": 64.5, "lon": -63.0}, {"name": "AVPUT", "lat": 65.03333333, "lon": -60.0}, {"name": "6650N", "lat": 66.0, "lon": -50.0}, {"name": "6640N", "lat": 66.0, "lon": -40.0}, {"name": "6530N", "lat": 65.0, "lon": -30.0}, {"name": "6520N", "lat": 65.0, "lon": -20.0}, {"name": "IPTON", "lat": 62.0, "lon": 0.0}, {"name": "DOPUX", "lat": 60.92915556, "lon": 7.52170833}, {"name": "ADOPI", "lat": 60.32361111, "lon": 9.38333333}, {"name": "ENGM", "lat": 60.20277786254883, "lon": 11.08388900756836}], "facilities": ["CZEG", "BGW", "BIRD", "ENSV-16", "ENSV-17", "ENOS-6"]}
{"slot_id": 258137, "dep": "CYYC", "arr": "ENGM", "ctot": "12:07", "route": [{"name": "CYYC", "lat": 51.113887786865234, "lon": -114.02027893066406}, {"name": "SAXOL", "lat": 51.46694444, "lon": -113.6325}, {"name": "54N10", "lat": 54.0, "lon": -110.0}, {"name": "PETMA", "lat": 56.09280556, "lon": -106.05186111}, {"name": "6094N", "lat": 60.0, "lon": -94.0}, {"name": "6280N", "lat": 62.0, "lon": -80.0}, {"name": "VODEK", "lat": 63.83333333, "lon": -70.0}, {"name": "NALDI", "lat": 64.5, "lon": -63.0}, {"name": "AVPUT", "lat": 65.03333333, "lon": -60.0}, {"name": "6650N", "lat": 66.0, "lon": -50.0}, {"name": "6640N", "lat": 66.0, "lon": -40.0}, {"name": "6530N", "lat": 65.0, "lon": -30.0}, {"name": "6520N", "lat": 65.0, "lon": -20.0}, {"name": "IPTON", "lat": 62.0, "lon": 0.0}, {"name": "DOPUX", "lat": 60.92915556, "lon": 7.52170833}, {"name": "ADOPI", "lat": 60.32361111, "lon": 9.38333333}, {"name": "ENGM", "lat": 60.20277786254883, "lon": 11.08388900756836}], "facilities": ["CZEG", "BGW", "BIRD", "ENSV-16", "ENSV-17", "ENOS-6"]}
{"slot_id": 258138, "dep": "CYYC", "arr": "ENGM", "ctot": "12:14", "route": [{"name": "CYYC", "lat": 51.113887786865234, "lon": -114.02027893066406}, {"name": "SAXOL", "lat": 51.46694444, "lon": -113.6325}, {"name": "54N10", "lat": 54.0, "lon": -110.0}, {"name": "PETMA", "lat": 56.09280556, "lon": -106.05186111}, {"name": "6094N", "lat": 60.0, "lon": -94.0}, {"name": "6280N", "lat": 62.0, "lon": -80.0}, {"name": "VODEK", "lat": 63.83333333, "lon": -70.0}, {"name": "NALDI", "lat": 64.5, "lon": -63.0}, {"name": "AVPUT", "lat": 65.03333333, "lon": -60.0}, {"name": "6650N", "lat": 66.0, "lon": -50.0}, {"name": "6640N", "lat": 66.0, "lon": -40.0}, {"name": "6530N", "lat": 65.0, "lon": -30.0}, {"name": "6520N", "lat": 65.0, "lon": -20.0}, {"name": "IPTON", "lat": 62.0, "lon": 0.0}, {"name": "DOPUX", "lat": 60.92915556, "lon": 7.52170833}, {"name": "ADOPI", "lat": 60.32361111, "lon": 9.38333333}, {"name": "ENGM", "lat": 60.20277786254883, "lon": 11.08388900756836}], "facilities": ["CZEG", "BGW", "BIRD", "ENSV-16", "ENSV-17", "ENOS-6"]}
{"slot_id": 258139, "dep": "CYYC", "arr": "ENGM", "ctot": "12:18", "route": [{"name": "CYYC", "lat": 51.113887786865234, "lon": -114.02027893066406}, {"name": "SAXOL", "lat": 51.46694444, "lon": -113.6325}, {"name": "54N10", "lat": 54.0, "lon": -110.0}, {"name": "PETMA", "lat": 56.09280556, "lon": -106.05186111}, {"name": "6094N", "lat": 60.0, "lon": -94.0}, {"name": "6280N", "lat": 62.0, "lon": -80.0}, {"name": "VODEK", "lat": 63.83333333, "lon": -70.0}, {"name": "NALDI", "lat": 64.5, "lon": -63.0}, {"name": "AVPUT", "lat": 65.03333333, "lon": -60.0}, {"name": "6650N", "lat": 66.0, "lon": -50.0}, {"name": "6640N", "lat": 66.0, "lon": -40.0}, {"name": "6530N", "lat": 65.0, "lon": -30.0}, {"name": "6520N", "lat": 65.0, "lon": -20.0}, {"name": "IPTON", "lat": 62.0, "lon": 0.0}, {"name": "DOPUX", "lat": 60.92915556, "lon": 7.52170833}, {"name": "ADOPI", "lat": 60.32361111, "lon": 9.38333333}, {"name": "ENGM", "lat": 60.20277786254883, "lon": 11.08388900756836}], "facilities": ["CZEG", "BGW", "BIRD", "ENSV-16", "ENSV-17", "ENOS-6"]}
{"slot_id": 258140, "dep": "CYYC", "arr": "ENGM", "ctot": "12:31", "route": [{"name": "CYYC", "lat": 51.113887786865234, "lon": -114.02027893066406}, {"name": "SAXOL", "lat": 51.46694444, "lon": -113.6325}, {"name": "54N10", "lat": 54.0, "lon": -110.0}, {"name": "PETMA", "lat": 56.09280556, "lon": -106.05186111}, {"name": "6094N", "lat": 60.0, "lon": -94.0}, {"name": "6280N", "lat": 62.0, "lon": -80.0}, {"name": "VODEK", "lat": 63.83333333, "lon": -70.0}, {"name": "NALDI", "lat": 64.5, "lon": -63.0}, {"name": "AVPUT", "lat": 65.03333333, "lon": -60.0}, {"name": "6650N", "lat": 66.0, "lon": -50.0}, {"name": "6640N", "lat": 66.0, "lon": -40.0}, {"name": "6530N", "lat": 65.0, "lon": -30.0}, {"name": "6520N", "lat": 65.0, "lon": -20.0}, {"name": "IPTON", "lat": 62.0, "lon": 0.0}, {"name": "DOPUX", "lat": 60.92915556, "lon": 7.52170833}, {"name": "ADOPI", "lat": 60.32361111, "lon": 9.38333333}, {"name": "ENGM", "lat": 60.20277786254883, "lon": 11.08388900756836}], "facilities": ["CZEG", "BGW", "BIRD", "ENSV-16", "ENSV-17", "ENOS-6"]}
{"slot_id": 258141, "dep": "CYYC", "arr": "ENGM", "ctot": "12:38", "route": [{"name": "CYYC", "lat": 51.113887786865234, "lon": -114.02027893066406}, {"name": "SAXOL", "lat": 51.46694444, "lon": -113.6325}, {"name": "54N10", "lat": 54.0, "lon": -110.0}, {"name": "PETMA", "lat": 56.09280556, "lon": -106.05186111}, {"name": "6094N", "lat": 60.0, "lon": -94.0}, {"name": "6280N", "lat": 62.0, "lon": -80.0}, {"name": "VODEK", "lat": 63.83333333, "lon": -70.0}, {"name": "NALDI", "lat": 64.5, "lon": -63.0}, {"name": "AVPUT", "lat": 65.03333333, "lon": -60.0}, {"name": "6650N", "lat": 66.0, "lon": -50.0}, {"name": "6640N", "lat": 66.0, "lon": -40.0}, {"name": "6530N", "lat": 65.0, "lon": -30.0}, {"name": "6520N", "lat": 65.0, "lon": -20.0}, {"name": "IPTON", "lat": 62.0, "lon": 0.0}, {"name": "DOPUX", "lat": 60.92915556, "lon": 7.52170833}, {"name": "ADOPI", "lat": 60.32361111, "lon": 9.38333333}, {"name": "ENGM", "lat": 60.20277786254883, "lon": 11.08388900756836}], "facilities": ["CZEG", "BGW", "BIRD", "ENSV-16", "ENSV-17", "ENOS-6"]}
{"slot_id": 258142, "dep": "CYYC", "arr": "ENGM", "ctot": "12:43", "route": [{"name": "CYYC", "lat": 51.113887786865234, "lon": -114.02027893066406}, {"name": "SAXOL", "lat": 51.46694444, "lon": -113.6325}, {"name": "54N10", "lat": 54.0, "lon": -110.0}, {"name": "PETMA", "lat": 56.09280556, "lon": -106.05186111}, {"name": "6094N", "lat": 60.0, "lon": -94.0}, {"name": "6280N", "lat": 62.0, "lon": -80.0}, {"name": "VODEK", "lat": 63.83333333, "lon": -70.0}, {"name": "NALDI", "lat": 64.5, "lon": -63.0}, {"name": "AVPUT", "lat": 65.03333333, "lon": -60.0}, {"name": "6650N", "lat": 66.0, "lon": -50.0}, {"name": "6640N", "lat": 66.0, "lon": -40.0}, {"name": "6530N", "lat": 65.0, "lon": -30.0}, {"name": "6520N", "lat": 65.0, "lon": -20.0}, {"name": "IPTON", "lat": 62.0, "lon": 0.0}, {"name": "DOPUX", "lat": 60.92915556, "lon": 7.52170833}, {"name": "ADOPI", "lat": 60.32361111, "lon": 9.38333333}, {"name": "ENGM", "lat": 60.20277786254883, "lon": 11.08388900756836}], "facilities": ["CZEG", "BGW", "BIRD", "ENSV-16", "ENSV-17", "ENOS-6"]}
{"slot_id": 258143, "dep": "CYYC", "arr": "ENGM", "ctot": "12:50", "route": [{"name": "CYYC", "lat": 51.113887786865234, "lon": -114.02027893066406}, {"name": "SAXOL", "lat": 51.46694444, "lon": -113.6325}, {"name": "54N10", "lat": 54.0, "lon": -110.0}, {"name": "PETMA", "lat": 56.09280556, "lon": -106.05186111}, {"name": "6094N", "lat": 60.0, "lon": -94.0}, {"name": "6280N", "lat": 62.0, "lon": -80.0}, {"name": "VODEK", "lat": 63.83333333, "lon": -70.0}, {"name": "NALDI", "lat": 64.5, "lon": -63.0}, {"name": "AVPUT", "lat": 65.03333333, "lon": -60.0}, {"name": "6650N", "lat": 66.0, "lon": -50.0}, {"name": "6640N", "lat": 66.0, "lon": -40.0}, {"name": "6530N", "lat": 65.0, "lon": -30.0}, {"name": "6520N", "lat": 65.0, "lon": -20.0}, {"name": "IPTON", "lat": 62.0, "lon": 0.0}, {"name": "DOPUX", "lat": 60.92915556, "lon": 7.52170833}, {"name": "ADOPI", "lat": 60.32361111, "lon": 9.38333333}, {"name": "ENGM", "lat": 60.20277786254883, "lon": 11.08388900756836}], "facilities": ["CZEG", "BGW", "BIRD", "ENSV-16", "ENSV-17", "ENOS-6"]}
{"slot_id": 258144, "dep": "CYYC", "arr": "ENGM", "ctot": "13:02", "route": [{"name": "CYYC", "lat": 51.113887786865234, "lon": -114.02027893066406}, {"name": "SAXOL", "lat": 51.46694444, "lon": -113.6325}, {"name": "54N10", "lat": 54.0, "lon": -110.0}, {"name": "PETMA", "lat": 56.09280556, "lon": -106.05186111}, {"name": "6094N", "lat": 60.0, "lon": -94.0}, {"name": "6280N", "lat": 62.0, "lon": -80.0}, {"name": "VODEK", "lat": 63.83333333, "lon": -70.0}, {"name": "NALDI", "lat": 64.5, "lon": -63.0}, {"name": "AVPUT", "lat": 65.03333333, "lon": -60.0}, {"name": "6650N", "lat": 66.0, "lon": -50.0}, {"name": "6640N", "lat": 66.0, "lon": -40.0}, {"name": "6530N", "lat": 65.0, "lon": -30.0}, {"name": "6520N", "lat": 65.0, "lon": -20.0}, {"name": "IPTON", "lat": 62.0, "lon": 0.0}, {"name": "DOPUX", "lat": 60.92915556, "lon": 7.52170833}, {"name": "ADOPI", "lat": 60.32361111, "lon": 9.38333333}, {"name": "ENGM", "lat": 60.20277786254883, "lon": 11.08388900756836}], "facilities": ["CZEG", "BGW", "BIRD", "ENSV-16", "ENSV-17", "ENOS-6"]}
{"slot_id": 258145, "dep": "CYYC", "arr": "ENGM", "ctot": "13:09", "route": [{"name": "CYYC", "lat": 51.113887786865234, "lon": -114.02027893066406}, {"name": "SAXOL", "lat": 51.46694444, "lon": -113.6325}, {"name": "54N10", "lat": 54.0, "lon": -110.0}, {"name": "PETMA", "lat": 56.09280556, "lon": -106.05186111}, {"name": "6094N", "lat": 60.0, "lon": -94.0}, {"name": "6280N", "lat": 62.0, "lon": -80.0}, {"name": "VODEK", "lat": 63.83333333, "lon": -70.0}, {"name": "NALDI", "lat": 64.5, "lon": -63.0}, {"name": "AVPUT", "lat": 65.03333333, "lon": -60.0}, {"name": "6650N", "lat": 66.0, "lon": -50.0}, {"name": "6640N", "lat": 66.0, "lon": -40.0}, {"name": "6530N", "lat": 65.0, "lon": -30.0}, {"name": "6520N", "lat": 65.0, "lon": -20.0}, {"name": "IPTON", "lat": 62.0, "lon": 0.0}, {"name": "DOPUX", "lat": 60.92915556, "lon": 7.52170833}, {"name": "ADOPI", "lat": 60.32361111, "lon": 9.38333333}, {"name": "ENGM", "lat": 60.20277786254883, "lon": 11.08388900756836}], "facilities": ["CZEG", "BGW", "BIRD", "ENSV-16", "ENSV-17", "ENOS-6"]}
{"slot_id": 258146, "dep": "CYYC", "arr": "ENGM", "ctot": "13:13", "route": [{"name": "CYYC", "lat": 51.113887786865234, "lon": -114.02027893066406}, {"name": "SAXOL", "lat": 51.46694444, "lon": -113.6325}, {"name": "54N10", "lat": 54.0, "lon": -110.0}, {"name": "PETMA", "lat": 56.09280556, "lon": -106.05186111}, {"name": "6094N", "lat": 60.0, "lon": -94.0}, {"name": "6280N", "lat": 62.0, "lon": -80.0}, {"name": "VODEK", "lat": 63.83333333, "lon": -70.0}, {"name": "NALDI", "lat": 64.5, "lon": -63.0}, {"name": "AVPUT", "lat": 65.03333333, "lon": -60.0}, {"name": "6650N", "lat": 66.0, "lon": -50.0}, {"name": "6640N", "lat": 66.0, "lon": -40.0}, {"name": "6530N", "lat": 65.0, "lon": -30.0}, {"name": "6520N", "lat": 65.0, "lon": -20.0}, {"name": "IPTON", "lat": 62.0, "lon": 0.0}, {"name": "DOPUX", "lat": 60.92915556, "lon": 7.52170833}, {"name": "ADOPI", "lat": 60.32361111, "lon": 9.38333333}, {"name": "ENGM", "lat": 60.20277786254883, "lon": 11.08388900756836}], "facilities": ["CZEG", "BGW", "BIRD", "ENSV-16", "ENSV-17", "ENOS-6"]}
{"slot_id": 258147, "dep": "CYYC", "arr": "ENGM", "ctot": "13:25", "route": [{"name": "CYYC", "lat": 51.113887786865234, "lon": -114.02027893066406}, {"name": "SAXOL", "lat": 51.46694444, "lon": -113.6325}, {"name": "54N10", "lat": 54.0, "lon": -110.0}, {"name": "PETMA", "lat": 56.09280556, "lon": -106.05186111}, {"name": "6094N", "lat": 60.0, "lon": -94.0}, {"name": "6280N", "lat": 62.0, "lon": -80.0}, {"name": "VODEK", "lat": 63.83333333, "lon": -70.0}, {"name": "NALDI", "lat": 64.5, "lon": -63.0}, {"name": "AVPUT", "lat": 65.03333333, "lon": -60.0}, {"name": "6650N", "lat": 66.0, "lon": -50.0}, {"name": "6640N", "lat": 66.0, "lon": -40.0}, {"name": "6530N", "lat": 65.0, "lon": -30.0}, {"name": "6520N", "lat": 65.0, "lon": -20.0}, {"name": "IPTON", "lat": 62.0, "lon": 0.0}, {"name": "DOPUX", "lat": 60.92915556, "lon": 7.52170833}, {"name": "ADOPI", "lat": 60.32361111, "lon": 9.38333333}, {"name": "ENGM", "lat": 60.20277786254883, "lon": 11.08388900756836}], "facilities": ["CZEG", "BGW", "BIRD", "ENSV-16", "ENSV-17", "ENOS-6"]}
{"slot_id": 258148, "dep": "CYYC", "arr": "ENGM", "ctot": "13:33", "route": [{"name": "CYYC", "lat": 51.113887786865234, "lon": -114.02027893066406}, {"name": "SAXOL", "lat": 51.46694444, "lon": -113.6325}, {"name": "54N10", "lat": 54.0, "lon": -110.0}, {"name": "PETMA", "lat": 56.09280556, "lon": -106.05186111}, {"name": "6094N", "lat": 60.0, "lon": -94.0}, {"name": "6280N", "lat": 62.0, "lon": -80.0}, {"name": "VODEK", "lat": 63.83333333, "lon": -70.0}, {"name": "NALDI", "lat": 64.5, "lon": -63.0}, {"name": "AVPUT", "lat": 65.03333333, "lon": -60.0}, {"name": "6650N", "lat": 66.0, "lon": -50.0}, {"name": "6640N", "lat": 66.0, "lon": -40.0}, {"name": "6530N", "lat": 65.0, "lon": -30.0}, {"name": "6520N", "lat": 65.0, "lon": -20.0}, {"name": "IPTON", "lat": 62.0, "lon": 0.0}, {"name": "DOPUX", "lat": 60.92915556, "lon": 7.52170833}, {"name": "ADOPI", "lat": 60.32361111, "lon": 9.38333333}, {"name": "ENGM", "lat": 60.20277786254883, "lon": 11.08388900756836}], "facilities": ["CZEG", "BGW", "BIRD", "ENSV-16", "ENSV-17", "ENOS-6"]}
{"slot_id": 258149, "dep": "CYYC", "arr": "LOWW", "ctot": "12:40", "route": [{"name": "CYYC", "lat": 51.113887786865234, "lon": -114.02027893066406}, {"name": "LOMLO", "lat": 51.06972222, "lon": -113.38666667}, {"name": "POLLE", "lat": 54.77444444, "lon": -103.83333333}, {"name": "5990N", "lat": 59.0, "lon": -90.0}, {"name": "6180N", "lat": 61.0, "lon": -80.0}, {"name": "DAXER", "lat": 61.08333333, "lon": -72.8}, {"name": "FEDDY", "lat": 61.7, "lon": -67.0}, {"name": "IKMAN", "lat": 62.5, "lon": -63.0}, {"name": "EMBOK", "lat": 63.46666667, "lon": -58.0}, {"name": "6450N", "lat": 64.0, "lon": -50.0}, {"name": "6440N", "lat": 64.0, "lon": -40.0}, {"name": "6330N", "lat": 63.0, "lon": -30.0}, {"name": "6320N", "lat": 63.0, "lon": -20.0}, {"name": "6315N", "lat": 63.0, "lon": -15.0}, {"name": "6210N", "lat": 62.0, "lon": -10.0}, {"name": "GUNPA", "lat": 61.0, "lon": 0.0}, {"name": "RAMUD", "lat": 57.05710833, "lon": 7.60731944}, {"name": "BEVRA", "lat": 55.75423333, "lon": 9.631075}, {"name": "PIZID", "lat": 54.52555556, "lon": 9.66638889}, {"name": "GESTO", "lat": 53.17488611, "lon": 10.08349167}, {"name": "ZUCKA", "lat": 51.67361111, "lon": 10.89666667}, {"name": "SODRO", "lat": 50.46472222, "lon": 11.82722222}, {"name": "ARMUT", "lat": 49.7225, "lon": 12.32333333}, {"name": "DEXIT", "lat": 48.76277778, "lon": 13.70916667}, {"name": "VENEN", "lat": 48.56655278, "lon": 14.54134444}, {"name": "LOWW", "lat": 48.11027908325195, "lon": 16.56972312927246}], "facilities": ["QX7", "CZEG", "CZUL", "CZQX", "BGW", "BIRD", "LOVV-N", "EKDK-V", "EKDK-C", "EDUU-ERL", "ENSV", "EDYY-H", "EDYY-S", "EDYY-C", "EDUU-DON", "LOWW-N", "EDUU-SAL"]}
{"slot_id": 258150, "dep": "CYYC", "arr": "LOWW", "ctot": "13:16", "route": [{"name": "CYYC", "lat": 51.113887786865234, "lon": -114.02027893066406}, {"name": "LOMLO", "lat": 51.06972222, "lon": -113.38666667}, {"name": "POLLE", "lat": 54.77444444, "lon": -103.83333333}, {"name": "5990N", "lat": 59.0, "lon": -90.0}, {"name": "6180N", "lat": 61.0, "lon": -80.0}, {"name": "DAXER", "lat": 61.08333333, "lon": -72.8}, {"name": "FEDDY", "lat": 61.7, "lon": -67.0}, {"name": "IKMAN", "lat": 62.5, "lon": -63.0}, {"name": "EMBOK", "lat": 63.46666667, "lon": -58.0}, {"name": "6450N", "lat": 64.0, "lon": -50.0}, {"name": "6440N", "lat": 64.0, "lon": -40.0}, {"name": "6330N", "lat": 63.0, "lon": -30.0}, {"name": "6320N", "lat": 63.0, "lon": -20.0}, {"name": "6315N", "lat": 63.0, "lon": -15.0}, {"name": "6210N", "lat": 62.0, "lon": -10.0}, {"name": "GUNPA", "lat": 61.0, "lon": 0.0}, {"name": "RAMUD", "lat": 57.05710833, "lon": 7.60731944}, {"name": "BEVRA", "lat": 55.75423333, "lon": 9.631075}, {"name": "PIZID", "lat": 54.52555556, "lon": 9.66638889}, {"name": "GESTO", "lat": 53.17488611, "lon": 10.08349167}, {"name": "ZUCKA", "lat": 51.67361111, "lon": 10.89666667}, {"name": "SODRO", "lat": 50.46472222, "lon": 11.82722222}, {"name": "ARMUT", "lat": 49.7225, "lon": 12.32333333}, {"name": "DEXIT", "lat": 48.76277778, "lon": 13.70916667}, {"name": "VENEN", "lat": 48.56655278, "lon": 14.54134444}, {"name": "LOWW", "lat": 48.11027908325195, "lon": 16.56972312927246}], "facilities": ["QX7", "CZEG", "CZUL", "CZQX", "BGW", "BIRD", "LOVV-N", "EKDK-V", "EKDK-C", "EDUU-ERL", "ENSV", "EDYY-H", "EDYY-S", "EDYY-C", "EDUU-DON", "LOWW-N", "EDUU-SAL"]}
{"slot_id": 258151, "dep": "CYYC", "arr": "LOWW", "ctot": "13:59", "route": [{"name": "CYYC", "lat": 51.113887786865234, "lon": -114.02027893066406}, {"name": "LOMLO", "lat": 51.06972222, "lon": -113.38666667}, {"name": "POLLE", "lat": 54.77444444, "lon": -103.83333333}, {"name": "5990N", "lat": 59.0, "lon": -90.0}, {"name": "6180N", "lat": 61.0, "lon": -80.0}, {"name": "DAXER", "lat": 61.08333333, "lon": -72.8}, {"name": "FEDDY", "lat": 61.7, "lon": -67.0}, {"name": "IKMAN", "lat": 62.5, "lon": -63.0}, {"name": "EMBOK", "lat": 63.46666667, "lon": -58.0}, {"name": "6450N", "lat": 64.0, "lon": -50.0}, {"name": "6440N", "lat": 64.0, "lon": -40.0}, {"name": "6330N", "lat": 63.0, "lon": -30.0}, {"name": "6320N", "lat": 63.0, "lon": -20.0}, {"name": "6315N", "lat": 63.0, "lon": -15.0}, {"name": "6210N", "lat": 62.0, "lon": -10.0}, {"name": "GUNPA", "lat": 61.0, "lon": 0.0}, {"name": "RAMUD", "lat": 57.05710833, "lon": 7.60731944}, {"name": "BEVRA", "lat": 55.75423333, "lon": 9.631075}, {"name": "PIZID", "lat": 54.52555556, "lon": 9.66638889}, {"name": "GESTO", "lat": 53.17488611, "lon": 10.08349167}, {"name": "ZUCKA", "lat": 51.67361111, "lon": 10.89666667}, {"name": "SODRO", "lat": 50.46472222, "lon": 11.82722222}, {"name": "ARMUT", "lat": 49.7225, "lon": 12.32333333}, {"name": "DEXIT", "lat": 48.76277778, "lon": 13.70916667}, {"name": "VENEN", "lat": 48.56655278, "lon": 14.54134444}, {"name": "LOWW", "lat": 48.11027908325195, "lon": 16.56972312927246}], "facilities": ["QX7", "CZEG", "CZUL", "CZQX", "BGW", "BIRD", "LOVV-N", "EKDK-V", "EKDK-C", "EDUU-ERL", "ENSV", "EDYY-H", "EDYY-S", "EDYY-C", "EDUU-DON", "LOWW-N", "EDUU-SAL"]}
{"slot_id": 258152, "dep": "CYYC", "arr": "LOWW", "ctot": "14:25", "route": [{"name": "CYYC", "lat": 51.113887786865234, "lon": -114.02027893066406}, {"name": "LOMLO", "lat": 51.06972222, "lon": -113.38666667}, {"name": "POLLE", "lat": 54.77444444, "lon": -103.83333333}, {"name": "5990N", "lat": 59.0, "lon": -90.0}, {"name": "6180N", "lat": 61.0, "lon": -80.0}, {"name": "DAXER", "lat": 61.08333333, "lon": -72.8}, {"name": "FEDDY", "lat": 61.7, "lon": -67.0}, {"name": "IKMAN", "lat": 62.5, "lon": -63.0}, {"name": "EMBOK", "lat": 63.46666667, "lon": -58.0}, {"name": "6450N", "lat": 64.0, "lon": -50.0}, {"name": "6440N", "lat": 64.0, "lon": -40.0}, {"name": "6330N", "lat": 63.0, "lon": -30.0}, {"name": "6320N", "lat": 63.0, "lon": -20.0}, {"name": "6315N", "lat": 63.0, "lon": -15.0}, {"name": "6210N", "lat": 62.0, "lon": -10.0}, {"name": "GUNPA", "lat": 61.0, "lon": 0.0}, {"name": "RAMUD", "lat": 57.05710833, "lon": 7.60731944}, {"name": "BEVRA", "lat": 55.75423333, "lon": 9.631075}, {"name": "PIZID", "lat": 54.52555556, "lon": 9.66638889}, {"name": "GESTO", "lat": 53.17488611, "lon": 10.08349167}, {"name": "ZUCKA", "lat": 51.67361111, "lon": 10.89666667}, {"name": "SODRO", "lat": 50.46472222, "lon": 11.82722222}, {"name": "ARMUT", "lat": 49.7225, "lon": 12.32333333}, {"name": "DEXIT", "lat": 48.76277778, "lon": 13.70916667}, {"name": "VENEN", "lat": 48.56655278, "lon": 14.54134444}, {"name": "LOWW", "lat": 48.11027908325195, "lon": 16.56972312927246}], "facilities": ["QX7", "CZEG", "CZUL", "CZQX", "BGW", "BIRD", "LOVV-N", "EKDK-V", "EKDK-C", "EDUU-ERL", "ENSV", "EDYY-H", "EDYY-S", "EDYY-C", "EDUU-DON", "LOWW-N", "EDUU-SAL"]}
{"slot_id": 258153, "dep": "CYYC", "arr": "LOWW", "ctot": "14:57", "route": [{"name": "CYYC", "lat": 51.113887786865234, "lon": -114.02027893066406}, {"name": "LOMLO", "lat": 51.06972222, "lon": -113.38666667}, {"name": "POLLE", "lat": 54.77444444, "lon": -103.83333333}, {"name": "5990N", "lat": 59.0, "lon": -90.0}, {"name": "6180N", "lat": 61.0, "lon": -80.0}, {"name": "DAXER", "lat": 61.08333333, "lon": -72.8}, {"name": "FEDDY", "lat": 61.7, "lon": -67.0}, {"name": "IKMAN", "lat": 62.5, "lon": -63.0}, {"name": "EMBOK", "lat": 63.46666667, "lon": -58.0}, {"name": "6450N", "lat": 64.0, "lon": -50.0}, {"name": "6440N", "lat": 64.0, "lon": -40.0}, {"name": "6330N", "lat": 63.0, "lon": -30.0}, {"name": "6320N", "lat": 63.0, "lon": -20.0}, {"name": "6315N", "lat": 63.0, "lon": -15.0}, {"name": "6210N", "lat": 62.0, "lon": -10.0}, {"name": "GUNPA", "lat": 61.0, "lon": 0.0}, {"name": "RAMUD", "lat": 57.05710833, "lon": 7.60731944}, {"name": "BEVRA", "lat": 55.75423333, "lon": 9.631075}, {"name": "PIZID", "lat": 54.52555556, "lon": 9.66638889}, {"name": "GESTO", "lat": 53.17488611, "lon": 10.08349167}, {"name": "ZUCKA", "lat": 51.67361111, "lon": 10.89666667}, {"name": "SODRO", "lat": 50.46472222, "lon": 11.82722222}, {"name": "ARMUT", "lat": 49.7225, "lon": 12.32333333}, {"name": "DEXIT", "lat": 48.76277778, "lon": 13.70916667}, {"name": "VENEN", "lat": 48.56655278, "lon": 14.54134444}, {"name": "LOWW", "lat": 48.11027908325195, "lon": 16.56972312927246}], "facilities": ["QX7", "CZEG", "CZUL", "CZQX", "BGW", "BIRD", "LOVV-N", "EKDK-V", "EKDK-C", "EDUU-ERL", "ENSV", "EDYY-H", "EDYY-S", "EDYY-C", "EDUU-DON", "LOWW-N", "EDUU-SAL"]}
{"slot_id": 258154, "dep": "CYYC", "arr": "UUEE", "ctot": "11:40", "route": [{"name": "CYYC", "lat": 51.113887786865234, "lon": -114.02027893066406}, {"name": "AVROM", "lat": 51.48083333, "lon": -113.79694444}, {"name": "DUDSO", "lat": 53.80277778, "lon": -111.83638889}, {"name": "RIDOK", "lat": 57.42861944, "lon": -106.53611111}, {"name": "6098N", "lat": 60.0, "lon": -98.0}, {"name": "YEK", "lat": 61.09909444, "lon": -94.06898333}, {"name": "6480N", "lat": 64.0, "lon": -80.0}, {"name": "EPMAN", "lat": 66.0, "lon": -60.0}, {"name": "6750N", "lat": 67.0, "lon": -50.0}, {"name": "6740N", "lat": 67.0, "lon": -40.0}, {"name": "6630N", "lat": 66.0, "lon": -30.0}, {"name": "6620N", "lat": 66.0, "lon": -20.0}, {"name": "BARUD", "lat": 62.5, "lon": 0.0}, {"name": "NUBRU", "lat": 61.40055556, "lon": 7.76166667}, {"name": "TOMBU", "lat": 59.22944444, "lon": 19.56783333}, {"name": "NEBSI", "lat": 58.905, "lon": 20.94138889}, {"name": "MONUS", "lat": 58.91527778, "lon": 27.26388889}, {"name": "DITEL", "lat": 59.05138889, "lon": 27.77111111}, {"name": "OBANA", "lat": 59.27888889, "lon": 28.48833333}, {"name": "LUPUN", "lat": 59.41222222, "lon": 32.02555556}, {"name": "IPRUT", "lat": 59.04388889, "lon": 34.77444444}, {"name": "EZMUB", "lat": 58.58333333, "lon": 35.81666667}, {"name": "AMEGO", "lat": 57.82472222, "lon": 37.80916667}, {"name": "ADUSI", "lat": 57.46666667, "lon": 37.75833333}, {"name": "ROMTA", "lat": 57.10777778, "lon": 37.71194444}, {"name": "UUEE", "lat": 55.97249984741211, "lon": 37.41305541992188}], "facilities": ["CZEG", "BGW", "BIRD", "ESMM-Y", "ULLL", "ENOS-7", "ENOS-1", "ENSV-16", "ESOS-3", "ENSV-17", "ESOS-6", "EETT"]}
{"slot_id": 258155, "dep": "CYYC", "arr": "UUEE", "ctot": "11:42", "route": [{"name": "CYYC", "lat": 51.113887786865234, "lon": -114.02027893066406}, {"name": "AVROM", "lat": 51.48083333, "lon": -113.79694444}, {"name": "DUDSO", "lat": 53.80277778, "lon": -111.83638889}, {"name": "RIDOK", "lat": 57.42861944, "lon": -106.53611111}, {"name": "6098N", "lat": 60.0, "lon": -98.0}, {"name": "YEK", "lat": 61.09909444, "lon": -94.06898333}, {"name": "6480N", "lat": 64.0, "lon": -80.0}, {"name": "EPMAN", "lat": 66.0, "lon": -60.0}, {"name": "6750N", "lat": 67.0, "lon": -50.0}, {"name": "6740N", "lat": 67.0, "lon": -40.0}, {"name": "6630N", "lat": 66.0, "lon": -30.0}, {"name": "6620N", "lat": 66.0, "lon": -20.0}, {"name": "BARUD", "lat": 62.5, "lon": 0.0}, {"name": "NUBRU", "lat": 61.40055556, "lon": 7.76166667}, {"name": "TOMBU", "lat": 59.22944444, "lon": 19.56783333}, {"name": "NEBSI", "lat": 58.905, "lon": 20.94138889}, {"name": "MONUS", "lat": 58.91527778, "lon": 27.26388889}, {"name": "DITEL", "lat": 59.05138889, "lon": 27.77111111}, {"name": "OBANA", "lat": 59.27888889, "lon": 28.48833333}, {"name": "LUPUN", "lat": 59.41222222, "lon": 32.02555556}, {"name": "IPRUT", "lat": 59.04388889, "lon": 34.77444444}, {"name": "EZMUB", "lat": 58.58333333, "lon": 35.81666667}, {"name": "AMEGO", "lat": 57.82472222, "lon": 37.80916667}, {"name": "ADUSI", "lat": 57.46666667, "lon": 37.75833333}, {"name": "ROMTA", "lat": 57.10777778, "lon": 37.71194444}, {"name": "UUEE", "lat": 55.97249984741211, "lon": 37.41305541992188}], "facilities": ["CZEG", "BGW", "BIRD", "ESMM-Y", "ULLL", "ENOS-7", "ENOS-1", "ENSV-16", "ESOS-3", "ENSV-17", "ESOS-6", "EETT"]}
{"slot_id": 258156, "dep": "CYYC", "arr": "UUEE", "ctot": "11:43", "route": [{"name": "CYYC", "lat": 51.113887786865234, "lon": -114.02027893066406}, {"name": "AVROM", "lat": 51.48083333, "lon": -113.79694444}, {"name": "DUDSO", "lat": 53.80277778, "lon": -111.83638889}, {"name": "RIDOK", "lat": 57.42861944, "lon": -106.53611111}, {"name": "6098N", "lat": 60.0, "lon": -98.0}, {"name": "YEK", "lat": 61.09909444, "lon": -94.06898333}, {"name": "6480N", "lat": 64.0, "lon": -80.0}, {"name": "EPMAN", "lat": 66.0, "lon": -60.0}, {"name": "6750N", "lat": 67.0, "lon": -50.0}, {"name": "6740N", "lat": 67.0, "lon": -40.0}, {"name": "6630N", "lat": 66.0, "lon": -30.0}, {"name": "6620N", "lat": 66.0, "lon": -20.0}, {"name": "BARUD", "lat": 62.5, "lon": 0.0}, {"name": "NUBRU", "lat": 61.40055556, "lon": 7.76166667}, {"name": "TOMBU", "lat": 59.22944444, "lon": 19.56783333}, {"name": "NEBSI", "lat": 58.905, "lon": 20.94138889}, {"name": "MONUS", "lat": 58.91527778, "lon": 27.26388889}, {"name": "DITEL", "lat": 59.05138889, "lon": 27.77111111}, {"name": "OBANA", "lat": 59.27888889, "lon": 28.48833333}, {"name": "LUPUN", "lat": 59.41222222, "lon": 32.02555556}, {"name": "IPRUT", "lat": 59.04388889, "lon": 34.77444444}, {"name": "EZMUB", "lat": 58.58333333, "lon": 35.81666667}, {"name": "AMEGO", "lat": 57.82472222, "lon": 37.80916667}, {"name": "ADUSI", "lat": 57.46666667, "lon": 37.75833333}, {"name": "ROMTA", "lat": 57.10777778, "lon": 37.71194444}, {"name": "UUEE", "lat": 55.97249984741211, "lon": 37.41305541992188}], "facilities": ["CZEG", "BGW", "BIRD", "ESMM-Y", "ULLL", "ENOS-7", "ENOS-1", "ENSV-16", "ESOS-3", "ENSV-17", "ESOS-6", "EETT"]}
{"slot_id": 258157, "dep": "CYYC", "arr": "UUEE", "ctot": "11:45", "route": [{"name": "CYYC", "lat": 51.113887786865234, "lon": -114.02027893066406}, {"name": "AVROM", "lat": 51.48083333, "lon": -113.79694444}, {"name": "DUDSO", "lat": 53.80277778, "lon": -111.83638889}, {"name": "RIDOK", "lat": 57.42861944, "lon": -106.53611111}, {"name": "6098N", "lat": 60.0, "lon": -98.0}, {"name": "YEK", "lat": 61.09909444, "lon": -94.06898333}, {"name": "6480N", "lat": 64.0, "lon": -80.0}, {"name": "EPMAN", "lat": 66.0, "lon": -60.0}, {"name": "6750N", "lat": 67.0, "lon": -50.0}, {"name": "6740N", "lat": 67.0, "lon": -40.0}, {"name": "6630N", "lat": 66.0, "lon": -30.0}, {"name": "6620N", "lat": 66.0, "lon": -20.0}, {"name": "BARUD", "lat": 62.5, "lon": 0.0}, {"name": "NUBRU", "lat": 61.40055556, "lon": 7.76166667}, {"name": "TOMBU", "lat": 59.22944444, "lon": 19.56783333}, {"name": "NEBSI", "lat": 58.905, "lon": 20.94138889}, {"name": "MONUS", "lat": 58.91527778, "lon": 27.26388889}, {"name": "DITEL", "lat": 59.05138889, "lon": 27.77111111}, {"name": "OBANA", "lat": 59.27888889, "lon": 28.48833333}, {"name": "LUPUN", "lat": 59.41222222, "lon": 32.02555556}, {"name": "IPRUT", "lat": 59.04388889, "lon": 34.77444444}, {"name": "EZMUB", "lat": 58.58333333, "lon": 35.81666667}, {"name": "AMEGO", "lat": 57.82472222, "lon": 37.80916667}, {"name": "ADUSI", "lat": 57.46666667, "lon": 37.75833333}, {"name": "ROMTA", "lat": 57.10777778, "lon": 37.71194444}, {"name": "UUEE", "lat": 55.97249984741211, "lon": 37.41305541992188}], "facilities": ["CZEG", "BGW", "BIRD", "ESMM-Y", "ULLL", "ENOS-7", "ENOS-1", "ENSV-16", "ESOS-3", "ENSV-17", "ESOS-6", "EETT"]}
{"slot_id": 258158, "dep": "CYYC", "arr": "UUEE", "ctot": "11:47", "route": [{"name": "CYYC", "lat": 51.113887786865234, "lon": -114.02027893066406}, {"name": "AVROM", "lat": 51.48083333, "lon": -113.79694444}, {"name": "DUDSO", "lat": 53.80277778, "lon": -111.83638889}, {"name": "RIDOK", "lat": 57.42861944, "lon": -106.53611111}, {"name": "6098N", "lat": 60.0, "lon": -98.0}, {"name": "YEK", "lat": 61.09909444, "lon": -94.06898333}, {"name": "6480N", "lat": 64.0, "lon": -80.0}, {"name": "EPMAN", "lat": 66.0, "lon": -60.0}, {"name": "6750N", "lat": 67.0, "lon": -50.0}, {"name": "6740N", "lat": 67.0, "lon": -40.0}, {"name": "6630N", "lat": 66.0, "lon": -30.0}, {"name": "6620N", "lat": 66.0, "lon": -20.0}, {"name": "BARUD", "lat": 62.5, "lon": 0.0}, {"name": "NUBRU", "lat": 61.40055556, "lon": 7.76166667}, {"name": "TOMBU", "lat": 59.22944444, "lon": 19.56783333}, {"name": "NEBSI", "lat": 58.905, "lon": 20.94138889}, {"name": "MONUS", "lat": 58.91527778, "lon": 27.26388889}, {"name": "DITEL", "lat": 59.05138889, "lon": 27.77111111}, {"name": "OBANA", "lat": 59.27888889, "lon": 28.48833333}, {"name": "LUPUN", "lat": 59.41222222, "lon": 32.02555556}, {"name": "IPRUT", "lat": 59.04388889, "lon": 34.77444444}, {"name": "EZMUB", "lat": 58.58333333, "lon": 35.81666667}, {"name": "AMEGO", "lat": 57.82472222, "lon": 37.80916667}, {"name": "ADUSI", "lat": 57.46666667, "lon": 37.75833333}, {"name": "ROMTA", "lat": 57.10777778, "lon": 37.71194444}, {"name": "UUEE", "lat": 55.97249984741211, "lon": 37.41305541992188}], "facilities": ["CZEG", "BGW", "BIRD", "ESMM-Y", "ULLL", "ENOS-7", "ENOS-1", "ENSV-16", "ESOS-3", "ENSV-17", "ESOS-6", "EETT"]}
{"slot_id": 258159, "dep": "CYYC", "arr": "UUEE", "ctot": "11:52", "route": [{"name": "CYYC", "lat": 51.113887786865234, "lon": -114.02027893066406}, {"name": "AVROM", "lat": 51.48083333, "lon": -113.79694444}, {"name": "DUDSO", "lat": 53.80277778, "lon": -111.83638889}, {"name": "RIDOK", "lat": 57.42861944, "lon": -106.53611111}, {"name": "6098N", "lat": 60.0, "lon": -98.0}, {"name": "YEK", "lat": 61.09909444, "lon": -94.06898333}, {"name": "6480N", "lat": 64.0, "lon": -80.0}, {"name": "EPMAN", "lat": 66.0, "lon": -60.0}, {"name": "6750N", "lat": 67.0, "lon": -50.0}, {"name": "6740N", "lat": 67.0, "lon": -40.0}, {"name": "6630N", "lat": 66.0, "lon": -30.0}, {"name": "6620N", "lat": 66.0, "lon": -20.0}, {"name": "BARUD", "lat": 62.5, "lon": 0.0}, {"name": "NUBRU", "lat": 61.40055556, "lon": 7.76166667}, {"name": "TOMBU", "lat": 59.22944444, "lon": 19.56783333}, {"name": "NEBSI", "lat": 58.905, "lon": 20.94138889}, {"name": "MONUS", "lat": 58.91527778, "lon": 27.26388889}, {"name": "DITEL", "lat": 59.05138889, "lon": 27.77111111}, {"name": "OBANA", "lat": 59.27888889, "lon": 28.48833333}, {"name": "LUPUN", "lat": 59.41222222, "lon": 32.02555556}, {"name": "IPRUT", "lat": 59.04388889, "lon": 34.77444444}, {"name": "EZMUB", "lat": 58.58333333, "lon": 35.81666667}, {"name": "AMEGO", "lat": 57.82472222, "lon": 37.80916667}, {"name": "ADUSI", "lat": 57.46666667, "lon": 37.75833333}, {"name": "ROMTA", "lat": 57.10777778, "lon": 37.71194444}, {"name": "UUEE", "lat": 55.97249984741211, "lon": 37.41305541992188}], "facilities": ["CZEG", "BGW", "BIRD", "ESMM-Y", "ULLL", "ENOS-7", "ENOS-1", "ENSV-16", "ESOS-3", "ENSV-17", "ESOS-6", "EETT"]}
{"slot_id": 258160, "dep": "CYYC", "arr": "UUEE", "ctot": "11:54", "route": [{"name": "CYYC", "lat": 51.113887786865234, "lon": -114.02027893066406}, {"name": "AVROM", "lat": 51.48083333, "lon": -113.79694444}, {"name": "DUDSO", "lat": 53.80277778, "lon": -111.83638889}, {"name": "RIDOK", "lat": 57.42861944, "lon": -106.53611111}, {"name": "6098N", "lat": 60.0, "lon": -98.0}, {"name": "YEK", "lat": 61.09909444, "lon": -94.06898333}, {"name": "6480N", "lat": 64.0, "lon": -80.0}, {"name": "EPMAN", "lat": 66.0, "lon": -60.0}, {"name": "6750N", "lat": 67.0, "lon": -50.0}, {"name": "6740N", "lat": 67.0, "lon": -40.0}, {"name": "6630N", "lat": 66.0, "lon": -30.0}, {"name": "6620N", "lat": 66.0, "lon": -20.0}, {"name": "BARUD", "lat": 62.5, "lon": 0.0}, {"name": "NUBRU", "lat": 61.40055556, "lon": 7.76166667}, {"name": "TOMBU", "lat": 59.22944444, "lon": 19.56783333}, {"name": "NEBSI", "lat": 58.905, "lon": 20.94138889}, {"name": "MONUS", "lat": 58.91527778, "lon": 27.26388889}, {"name": "DITEL", "lat": 59.05138889, "lon": 27.77111111}, {"name": "OBANA", "lat": 59.27888889, "lon": 28.48833333}, {"name": "LUPUN", "lat": 59.41222222, "lon": 32.02555556}, {"name": "IPRUT", "lat": 59.04388889, "lon": 34.77444444}, {"name": "EZMUB", "lat": 58.58333333, "lon": 35.81666667}, {"name": "AMEGO", "lat": 57.82472222, "lon": 37.80916667}, {"name": "ADUSI", "lat": 57.46666667, "lon": 37.75833333}, {"name": "ROMTA", "lat": 57.10777778, "lon": 37.71194444}, {"name": "UUEE", "lat": 55.97249984741211, "lon": 37.41305541992188}], "facilities": ["CZEG", "BGW", "BIRD", "ESMM-Y", "ULLL", "ENOS-7", "ENOS-1", "ENSV-16", "ESOS-3", "ENSV-17", "ESOS-6", "EETT"]}
{"slot_id": 258161, "dep": "CYYC", "arr": "UUEE", "ctot": "11:55", "route": [{"name": "CYYC", "lat": 51.113887786865234, "lon": -114.02027893066406}, {"name": "AVROM", "lat": 51.48083333, "lon": -113.79694444}, {"name": "DUDSO", "lat": 53.80277778, "lon": -111.83638889}, {"name": "RIDOK", "lat": 57.42861944, "lon": -106.53611111}, {"name": "6098N", "lat": 60.0, "lon": -98.0}, {"name": "YEK", "lat": 61.09909444, "lon": -94.06898333}, {"name": "6480N", "lat": 64.0, "lon": -80.0}, {"name": "EPMAN", "lat": 66.0, "lon": -60.0}, {"name": "6750N", "lat": 67.0, "lon": -50.0}, {"name": "6740N", "lat": 67.0, "lon": -40.0}, {"name": "6630N", "lat": 66.0, "lon": -30.0}, {"name": "6620N", "lat": 66.0, "lon": -20.0}, {"name": "BARUD", "lat": 62.5, "lon": 0.0}, {"name": "NUBRU", "lat": 61.40055556, "lon": 7.76166667}, {"name": "TOMBU", "lat": 59.22944444, "lon": 19.56783333}, {"name": "NEBSI", "lat": 58.905, "lon": 20.94138889}, {"name": "MONUS", "lat": 58.91527778, "lon": 27.26388889}, {"name": "DITEL", "lat": 59.05138889, "lon": 27.77111111}, {"name": "OBANA", "lat": 59.27888889, "lon": 28.48833333}, {"name": "LUPUN", "lat": 59.41222222, "lon": 32.02555556}, {"name": "IPRUT", "lat": 59.04388889, "lon": 34.77444444}, {"name": "EZMUB", "lat": 58.58333333, "lon": 35.81666667}, {"name": "AMEGO", "lat": 57.82472222, "lon": 37.80916667}, {"name": "ADUSI", "lat": 57.46666667, "lon": 37.75833333}, {"name": "ROMTA", "lat": 57.10777778, "lon": 37.71194444}, {"name": "UUEE", "lat": 55.97249984741211, "lon": 37.41305541992188}], "facilities": ["CZEG", "BGW", "BIRD", "ESMM-Y", "ULLL", "ENOS-7", "ENOS-1", "ENSV-16", "ESOS-3", "ENSV-17", "ESOS-6", "EETT"]}
{"slot_id": 258162, "dep": "CYYC", "arr": "UUEE", "ctot": "11:59", "route": [{"name": "CYYC", "lat": 51.113887786865234, "lon": -114.02027893066406}, {"name": "AVROM", "lat": 51.48083333, "lon": -113.79694444}, {"name": "DUDSO", "lat": 53.80277778, "lon": -111.83638889}, {"name": "RIDOK", "lat": 57.42861944, "lon": -106.53611111}, {"name": "6098N", "lat": 60.0, "lon": -98.0}, {"name": "YEK", "lat": 61.09909444, "lon": -94.06898333}, {"name": "6480N", "lat": 64.0, "lon": -80.0}, {"name": "EPMAN", "lat": 66.0, "lon": -60.0}, {"name": "6750N", "lat": 67.0, "lon": -50.0}, {"name": "6740N", "lat": 67.0, "lon": -40.0}, {"name": "6630N", "lat": 66.0, "lon": -30.0}, {"name": "6620N", "lat": 66.0, "lon": -20.0}, {"name": "BARUD", "lat": 62.5, "lon": 0.0}, {"name": "NUBRU", "lat": 61.40055556, "lon": 7.76166667}, {"name": "TOMBU", "lat": 59.22944444, "lon": 19.56783333}, {"name": "NEBSI", "lat": 58.905, "lon": 20.94138889}, {"name": "MONUS", "lat": 58.91527778, "lon": 27.26388889}, {"name": "DITEL", "lat": 59.05138889, "lon": 27.77111111}, {"name": "OBANA", "lat": 59.27888889, "lon": 28.48833333}, {"name": "LUPUN", "lat": 59.41222222, "lon": 32.02555556}, {"name": "IPRUT", "lat": 59.04388889, "lon": 34.77444444}, {"name": "EZMUB", "lat": 58.58333333, "lon": 35.81666667}, {"name": "AMEGO", "lat": 57.82472222, "lon": 37.80916667}, {"name": "ADUSI", "lat": 57.46666667, "lon": 37.75833333}, {"name": "ROMTA", "lat": 57.10777778, "lon": 37.71194444}, {"name": "UUEE", "lat": 55.97249984741211, "lon": 37.41305541992188}], "facilities": ["CZEG", "BGW", "BIRD", "ESMM-Y", "ULLL", "ENOS-7", "ENOS-1", "ENSV-16", "ESOS-3", "ENSV-17", "ESOS-6", "EETT"]}
{"slot_id": 258163, "dep": "CYYC", "arr": "UUEE", "ctot": "12:06", "route": [{"name": "CYYC", "lat": 51.113887786865234, "lon": -114.02027893066406}, {"name": "AVROM", "lat": 51.48083333, "lon": -113.79694444}, {"name": "DUDSO", "lat": 53.80277778, "lon": -111.83638889}, {"name": "RIDOK", "lat": 57.42861944, "lon": -106.53611111}, {"name": "6098N", "lat": 60.0, "lon": -98.0}, {"name": "YEK", "lat": 61.09909444, "lon": -94.06898333}, {"name": "6480N", "lat": 64.0, "lon": -80.0}, {"name": "EPMAN", "lat": 66.0, "lon": -60.0}, {"name": "6750N", "lat": 67.0, "lon": -50.0}, {"name": "6740N", "lat": 67.0, "lon": -40.0}, {"name": "6630N", "lat": 66.0, "lon": -30.0}, {"name": "6620N", "lat": 66.0, "lon": -20.0}, {"name": "BARUD", "lat": 62.5, "lon": 0.0}, {"name": "NUBRU", "lat": 61.40055556, "lon": 7.76166667}, {"name": "TOMBU", "lat": 59.22944444, "lon": 19.56783333}, {"name": "NEBSI", "lat": 58.905, "lon": 20.94138889}, {"name": "MONUS", "lat": 58.91527778, "lon": 27.26388889}, {"name": "DITEL", "lat": 59.05138889, "lon": 27.77111111}, {"name": "OBANA", "lat": 59.27888889, "lon": 28.48833333}, {"name": "LUPUN", "lat": 59.41222222, "lon": 32.02555556}, {"name": "IPRUT", "lat": 59.04388889, "lon": 34.77444444}, {"name": "EZMUB", "lat": 58.58333333, "lon": 35.81666667}, {"name": "AMEGO", "lat": 57.82472222, "lon": 37.80916667}, {"name": "ADUSI", "lat": 57.46666667, "lon": 37.75833333}, {"name": "ROMTA", "lat": 57.10777778, "lon": 37.71194444}, {"name": "UUEE", "lat": 55.97249984741211, "lon": 37.41305541992188}], "facilities": ["CZEG", "BGW", "BIRD", "ESMM-Y", "ULLL", "ENOS-7", "ENOS-1", "ENSV-16", "ESOS-3", "ENSV-17", "ESOS-6", "EETT"]}
{"slot_id": 258164, "dep": "CYYC", "arr": "UUEE", "ctot": "12:09", "route": [{"name": "CYYC", "lat": 51.113887786865234, "lon": -114.02027893066406}, {"name": "AVROM", "lat": 51.48083333, "lon": -113.79694444}, {"name": "DUDSO", "lat": 53.80277778, "lon": -111.83638889}, {"name": "RIDOK", "lat": 57.42861944, "lon": -106.53611111}, {"name": "6098N", "lat": 60.0, "lon": -98.0}, {"name": "YEK", "lat": 61.09909444, "lon": -94.06898333}, {"name": "6480N", "lat": 64.0, "lon": -80.0}, {"name": "EPMAN", "lat": 66.0, "lon": -60.0}, {"name": "6750N", "lat": 67.0, "lon": -50.0}, {"name": "6740N", "lat": 67.0, "lon": -40.0}, {"name": "6630N", "lat": 66.0, "lon": -30.0}, {"name": "6620N", "lat": 66.0, "lon": -20.0}, {"name": "BARUD", "lat": 62.5, "lon": 0.0}, {"name": "NUBRU", "lat": 61.40055556, "lon": 7.76166667}, {"name": "TOMBU", "lat": 59.22944444, "lon": 19.56783333}, {"name": "NEBSI", "lat": 58.905, "lon": 20.94138889}, {"name": "MONUS", "lat": 58.91527778, "lon": 27.26388889}, {"name": "DITEL", "lat": 59.05138889, "lon": 27.77111111}, {"name": "OBANA", "lat": 59.27888889, "lon": 28.48833333}, {"name": "LUPUN", "lat": 59.41222222, "lon": 32.02555556}, {"name": "IPRUT", "lat": 59.04388889, "lon": 34.77444444}, {"name": "EZMUB", "lat": 58.58333333, "lon": 35.81666667}, {"name": "AMEGO", "lat": 57.82472222, "lon": 37.80916667}, {"name": "ADUSI", "lat": 57.46666667, "lon": 37.75833333}, {"name": "ROMTA", "lat": 57.10777778, "lon": 37.71194444}, {"name": "UUEE", "lat": 55.97249984741211, "lon": 37.41305541992188}], "facilities": ["CZEG", "BGW", "BIRD", "ESMM-Y", "ULLL", "ENOS-7", "ENOS-1", "ENSV-16", "ESOS-3", "ENSV-17", "ESOS-6", "EETT"]}
{"slot_id": 258165, "dep": "CYYC", "arr": "UUEE", "ctot": "12:13", "route": [{"name": "CYYC", "lat": 51.113887786865234, "lon": -114.02027893066406}, {"name": "AVROM", "lat": 51.48083333, "lon": -113.79694444}, {"name": "DUDSO", "lat": 53.80277778, "lon": -111.83638889}, {"name": "RIDOK", "lat": 57.42861944, "lon": -106.53611111}, {"name": "6098N", "lat": 60.0, "lon": -98.0}, {"name": "YEK", "lat": 61.09909444, "lon": -94.06898333}, {"name": "6480N", "lat": 64.0, "lon": -80.0}, {"name": "EPMAN", "lat": 66.0, "lon": -60.0}, {"name": "6750N", "lat": 67.0, "lon": -50.0}, {"name": "6740N", "lat": 67.0, "lon": -40.0}, {"name": "6630N", "lat": 66.0, "lon": -30.0}, {"name": "6620N", "lat": 66.0, "lon": -20.0}, {"name": "BARUD", "lat": 62.5, "lon": 0.0}, {"name": "NUBRU", "lat": 61.40055556, "lon": 7.76166667}, {"name": "TOMBU", "lat": 59.22944444, "lon": 19.56783333}, {"name": "NEBSI", "lat": 58.905, "lon": 20.94138889}, {"name": "MONUS", "lat": 58.91527778, "lon": 27.26388889}, {"name": "DITEL", "lat": 59.05138889, "lon": 27.77111111}, {"name": "OBANA", "lat": 59.27888889, "lon": 28.48833333}, {"name": "LUPUN", "lat": 59.41222222, "lon": 32.02555556}, {"name": "IPRUT", "lat": 59.04388889, "lon": 34.77444444}, {"name": "EZMUB", "lat": 58.58333333, "lon": 35.81666667}, {"name": "AMEGO", "lat": 57.82472222, "lon": 37.80916667}, {"name": "ADUSI", "lat": 57.46666667, "lon": 37.75833333}, {"name": "ROMTA", "lat": 57.10777778, "lon": 37.71194444}, {"name": "UUEE", "lat": 55.97249984741211, "lon": 37.41305541992188}], "facilities": ["CZEG", "BGW", "BIRD", "ESMM-Y", "ULLL", "ENOS-7", "ENOS-1", "ENSV-16", "ESOS-3", "ENSV-17", "ESOS-6", "EETT"]}
{"slot_id": 258166, "dep": "CYYC", "arr": "UUEE", "ctot": "12:16", "route": [{"name": "CYYC", "lat": 51.113887786865234, "lon": -114.02027893066406}, {"name": "AVROM", "lat": 51.48083333, "lon": -113.79694444}, {"name": "DUDSO", "lat": 53.80277778, "lon": -111.83638889}, {"name": "RIDOK", "lat": 57.42861944, "lon": -106.53611111}, {"name": "6098N", "lat": 60.0, "lon": -98.0}, {"name": "YEK", "lat": 61.09909444, "lon": -94.06898333}, {"name": "6480N", "lat": 64.0, "lon": -80.0}, {"name": "EPMAN", "lat": 66.0, "lon": -60.0}, {"name": "6750N", "lat": 67.0, "lon": -50.0}, {"name": "6740N", "lat": 67.0, "lon": -40.0}, {"name": "6630N", "lat": 66.0, "lon": -30.0}, {"name": "6620N", "lat": 66.0, "lon": -20.0}, {"name": "BARUD", "lat": 62.5, "lon": 0.0}, {"name": "NUBRU", "lat": 61.40055556, "lon": 7.76166667}, {"name": "TOMBU", "lat": 59.22944444, "lon": 19.56783333}, {"name": "NEBSI", "lat": 58.905, "lon": 20.94138889}, {"name": "MONUS", "lat": 58.91527778, "lon": 27.26388889}, {"name": "DITEL", "lat": 59.05138889, "lon": 27.77111111}, {"name": "OBANA", "lat": 59.27888889, "lon": 28.48833333}, {"name": "LUPUN", "lat": 59.41222222, "lon": 32.02555556}, {"name": "IPRUT", "lat": 59.04388889, "lon": 34.77444444}, {"name": "EZMUB", "lat": 58.58333333, "lon": 35.81666667}, {"name": "AMEGO", "lat": 57.82472222, "lon": 37.80916667}, {"name": "ADUSI", "lat": 57.46666667, "lon": 37.75833333}, {"name": "ROMTA", "lat": 57.10777778, "lon": 37.71194444}, {"name": "UUEE", "lat": 55.97249984741211, "lon": 37.41305541992188}], "facilities": ["CZEG", "BGW", "BIRD", "ESMM-Y", "ULLL", "ENOS-7", "ENOS-1", "ENSV-16", "ESOS-3", "ENSV-17", "ESOS-6", "EETT"]}
{"slot_id": 258167, "dep": "CYYC", "arr": "UUEE", "ctot": "12:19", "route": [{"name": "CYYC", "lat": 51.113887786865234, "lon": -114.02027893066406}, {"name": "AVROM", "lat": 51.48083333, "lon": -113.79694444}, {"name": "DUDSO", "lat": 53.80277778, "lon": -111.83638889}, {"name": "RIDOK", "lat": 57.42861944, "lon": -106.53611111}, {"name": "6098N", "lat": 60.0, "lon": -98.0}, {"name": "YEK", "lat": 61.09909444, "lon": -94.06898333}, {"name": "6480N", "lat": 64.0, "lon": -80.0}, {"name": "EPMAN", "lat": 66.0, "lon": -60.0}, {"name": "6750N", "lat": 67.0, "lon": -50.0}, {"name": "6740N", "lat": 67.0, "lon": -40.0}, {"name": "6630N", "lat": 66.0, "lon": -30.0}, {"name": "6620N", "lat": 66.0, "lon": -20.0}, {"name": "BARUD", "lat": 62.5, "lon": 0.0}, {"name": "NUBRU", "lat": 61.40055556, "lon": 7.76166667}, {"name": "TOMBU", "lat": 59.22944444, "lon": 19.56783333}, {"name": "NEBSI", "lat": 58.905, "lon": 20.94138889}, {"name": "MONUS", "lat": 58.91527778, "lon": 27.26388889}, {"name": "DITEL", "lat": 59.05138889, "lon": 27.77111111}, {"name": "OBANA", "lat": 59.27888889, "lon": 28.48833333}, {"name": "LUPUN", "lat": 59.41222222, "lon": 32.02555556}, {"name": "IPRUT", "lat": 59.04388889, "lon": 34.77444444}, {"name": "EZMUB", "lat": 58.58333333, "lon": 35.81666667}, {"name": "AMEGO", "lat": 57.82472222, "lon": 37.80916667}, {"name": "ADUSI", "lat": 57.46666667, "lon": 37.75833333}, {"name": "ROMTA", "lat": 57.10777778, "lon": 37.71194444}, {"name": "UUEE", "lat": 55.97249984741211, "lon": 37.41305541992188}], "facilities": ["CZEG", "BGW", "BIRD", "ESMM-Y", "ULLL", "ENOS-7", "ENOS-1", "ENSV-16", "ESOS-3", "ENSV-17", "ESOS-6", "EETT"]}
{"slot_id": 258168, "dep": "CYYC", "arr": "UUEE", "ctot": "12:23", "route": [{"name": "CYYC", "lat": 51.113887786865234, "lon": -114.02027893066406}, {"name": "AVROM", "lat": 51.48083333, "lon": -113.79694444}, {"name": "DUDSO", "lat": 53.80277778, "lon": -111.83638889}, {"name": "RIDOK", "lat": 57.42861944, "lon": -106.53611111}, {"name": "6098N", "lat": 60.0, "lon": -98.0}, {"name": "YEK", "lat": 61.09909444, "lon": -94.06898333}, {"name": "6480N", "lat": 64.0, "lon": -80.0}, {"name": "EPMAN", "lat": 66.0, "lon": -60.0}, {"name": "6750N", "lat": 67.0, "lon": -50.0}, {"name": "6740N", "lat": 67.0, "lon": -40.0}, {"name": "6630N", "lat": 66.0, "lon": -30.0}, {"name": "6620N", "lat": 66.0, "lon": -20.0}, {"name": "BARUD", "lat": 62.5, "lon": 0.0}, {"name": "NUBRU", "lat": 61.40055556, "lon": 7.76166667}, {"name": "TOMBU", "lat": 59.22944444, "lon": 19.56783333}, {"name": "NEBSI", "lat": 58.905, "lon": 20.94138889}, {"name": "MONUS", "lat": 58.91527778, "lon": 27.26388889}, {"name": "DITEL", "lat": 59.05138889, "lon": 27.77111111}, {"name": "OBANA", "lat": 59.27888889, "lon": 28.48833333}, {"name": "LUPUN", "lat": 59.41222222, "lon": 32.02555556}, {"name": "IPRUT", "lat": 59.04388889, "lon": 34.77444444}, {"name": "EZMUB", "lat": 58.58333333, "lon": 35.81666667}, {"name": "AMEGO", "lat": 57.82472222, "lon": 37.80916667}, {"name": "ADUSI", "lat": 57.46666667, "lon": 37.75833333}, {"name": "ROMTA", "lat": 57.10777778, "lon": 37.71194444}, {"name": "UUEE", "lat": 55.97249984741211, "lon": 37.41305541992188}], "facilities": ["CZEG", "BGW", "BIRD", "ESMM-Y", "ULLL", "ENOS-7", "ENOS-1", "ENSV-16", "ESOS-3", "ENSV-17", "ESOS-6", "EETT"]}
{"slot_id": 258169, "dep": "CYYC", "arr": "UUEE", "ctot": "12:26", "route": [{"name": "CYYC", "lat": 51.113887786865234, "lon": -114.02027893066406}, {"name": "AVROM", "lat": 51.48083333, "lon": -113.79694444}, {"name": "DUDSO", "lat": 53.80277778, "lon": -111.83638889}, {"name": "RIDOK", "lat": 57.42861944, "lon": -106.53611111}, {"name": "6098N", "lat": 60.0, "lon": -98.0}, {"name": "YEK", "lat": 61.09909444, "lon": -94.06898333}, {"name": "6480N", "lat": 64.0, "lon": -80.0}, {"name": "EPMAN", "lat": 66.0, "lon": -60.0}, {"name": "6750N", "lat": 67.0, "lon": -50.0}, {"name": "6740N", "lat": 67.0, "lon": -40.0}, {"name": "6630N", "lat": 66.0, "lon": -30.0}, {"name": "6620N", "lat": 66.0, "lon": -20.0}, {"name": "BARUD", "lat": 62.5, "lon": 0.0}, {"name": "NUBRU", "lat": 61.40055556, "lon": 7.76166667}, {"name": "TOMBU", "lat": 59.22944444, "lon": 19.56783333}, {"name": "NEBSI", "lat": 58.905, "lon": 20.94138889}, {"name": "MONUS", "lat": 58.91527778, "lon": 27.26388889}, {"name": "DITEL", "lat": 59.05138889, "lon": 27.77111111}, {"name": "OBANA", "lat": 59.27888889, "lon": 28.48833333}, {"name": "LUPUN", "lat": 59.41222222, "lon": 32.02555556}, {"name": "IPRUT", "lat": 59.04388889, "lon": 34.77444444}, {"name": "EZMUB", "lat": 58.58333333, "lon": 35.81666667}, {"name": "AMEGO", "lat": 57.82472222, "lon": 37.80916667}, {"name": "ADUSI", "lat": 57.46666667, "lon": 37.75833333}, {"name": "ROMTA", "lat": 57.10777778, "lon": 37.71194444}, {"name": "UUEE", "lat": 55.97249984741211, "lon": 37.41305541992188}], "facilities": ["CZEG", "BGW", "BIRD", "ESMM-Y", "ULLL", "ENOS-7", "ENOS-1", "ENSV-16", "ESOS-3", "ENSV-17", "ESOS-6", "EETT"]}
{"slot_id": 258170, "dep": "CYYC", "arr": "UUEE", "ctot": "12:30", "route": [{"name": "CYYC", "lat": 51.113887786865234, "lon": -114.02027893066406}, {"name": "AVROM", "lat": 51.48083333, "lon": -113.79694444}, {"name": "DUDSO", "lat": 53.80277778, "lon": -111.83638889}, {"name": "RIDOK", "lat": 57.42861944, "lon": -106.53611111}, {"name": "6098N", "lat": 60.0, "lon": -98.0}, {"name": "YEK", "lat": 61.09909444, "lon": -94.06898333}, {"name": "6480N", "lat": 64.0, "lon": -80.0}, {"name": "EPMAN", "lat": 66.0, "lon": -60.0}, {"name": "6750N", "lat": 67.0, "lon": -50.0}, {"name": "6740N", "lat": 67.0, "lon": -40.0}, {"name": "6630N", "lat": 66.0, "lon": -30.0}, {"name": "6620N", "lat": 66.0, "lon": -20.0}, {"name": "BARUD", "lat": 62.5, "lon": 0.0}, {"name": "NUBRU", "lat": 61.40055556, "lon": 7.76166667}, {"name": "TOMBU", "lat": 59.22944444, "lon": 19.56783333}, {"name": "NEBSI", "lat": 58.905, "lon": 20.94138889}, {"name": "MONUS", "lat": 58.91527778, "lon": 27.26388889}, {"name": "DITEL", "lat": 59.05138889, "lon": 27.77111111}, {"name": "OBANA", "lat": 59.27888889, "lon": 28.48833333}, {"name": "LUPUN", "lat": 59.41222222, "lon": 32.02555556}, {"name": "IPRUT", "lat": 59.04388889, "lon": 34.77444444}, {"name": "EZMUB", "lat": 58.58333333, "lon": 35.81666667}, {"name": "AMEGO", "lat": 57.82472222, "lon": 37.80916667}, {"name": "ADUSI", "lat": 57.46666667, "lon": 37.75833333}, {"name": "ROMTA", "lat": 57.10777778, "lon": 37.71194444}, {"name": "UUEE", "lat": 55.97249984741211, "lon": 37.41305541992188}], "facilities": ["CZEG", "BGW", "BIRD", "ESMM-Y", "ULLL", "ENOS-7", "ENOS-1", "ENSV-16", "ESOS-3", "ENSV-17", "ESOS-6", "EETT"]}
{"slot_id": 258171, "dep": "CYYC", "arr": "UUEE", "ctot": "12:33", "route": [{"name": "CYYC", "lat": 51.113887786865234, "lon": -114.02027893066406}, {"name": "AVROM", "lat": 51.48083333, "lon": -113.79694444}, {"name": "DUDSO", "lat": 53.80277778, "lon": -111.83638889}, {"name": "RIDOK", "lat": 57.42861944, "lon": -106.53611111}, {"name": "6098N", "lat": 60.0, "lon": -98.0}, {"name": "YEK", "lat": 61.09909444, "lon": -94.06898333}, {"name": "6480N", "lat": 64.0, "lon": -80.0}, {"name": "EPMAN", "lat": 66.0, "lon": -60.0}, {"name": "6750N", "lat": 67.0, "lon": -50.0}, {"name": "6740N", "lat": 67.0, "lon": -40.0}, {"name": "6630N", "lat": 66.0, "lon": -30.0}, {"name": "6620N", "lat": 66.0, "lon": -20.0}, {"name": "BARUD", "lat": 62.5, "lon": 0.0}, {"name": "NUBRU", "lat": 61.40055556, "lon": 7.76166667}, {"name": "TOMBU", "lat": 59.22944444, "lon": 19.56783333}, {"name": "NEBSI", "lat": 58.905, "lon": 20.94138889}, {"name": "MONUS", "lat": 58.91527778, "lon": 27.26388889}, {"name": "DITEL", "lat": 59.05138889, "lon": 27.77111111}, {"name": "OBANA", "lat": 59.27888889, "lon": 28.48833333}, {"name": "LUPUN", "lat": 59.41222222, "lon": 32.02555556}, {"name": "IPRUT", "lat": 59.04388889, "lon": 34.77444444}, {"name": "EZMUB", "lat": 58.58333333, "lon": 35.81666667}, {"name": "AMEGO", "lat": 57.82472222, "lon": 37.80916667}, {"name": "ADUSI", "lat": 57.46666667, "lon": 37.75833333}, {"name": "ROMTA", "lat": 57.10777778, "lon": 37.71194444}, {"name": "UUEE", "lat": 55.97249984741211, "lon": 37.41305541992188}], "facilities": ["CZEG", "BGW", "BIRD", "ESMM-Y", "ULLL", "ENOS-7", "ENOS-1", "ENSV-16", "ESOS-3", "ENSV-17", "ESOS-6", "EETT"]}
{"slot_id": 258172, "dep": "CYYC", "arr": "UUEE", "ctot": "12:37", "route": [{"name": "CYYC", "lat": 51.113887786865234, "lon": -114.02027893066406}, {"name": "AVROM", "lat": 51.48083333, "lon": -113.79694444}, {"name": "DUDSO", "lat": 53.80277778, "lon": -111.83638889}, {"name": "RIDOK", "lat": 57.42861944, "lon": -106.53611111}, {"name": "6098N", "lat": 60.0, "lon": -98.0}, {"name": "YEK", "lat": 61.09909444, "lon": -94.06898333}, {"name": "6480N", "lat": 64.0, "lon": -80.0}, {"name": "EPMAN", "lat": 66.0, "lon": -60.0}, {"name": "6750N", "lat": 67.0, "lon": -50.0}, {"name": "6740N", "lat": 67.0, "lon": -40.0}, {"name": "6630N", "lat": 66.0, "lon": -30.0}, {"name": "6620N", "lat": 66.0, "lon": -20.0}, {"name": "BARUD", "lat": 62.5, "lon": 0.0}, {"name": "NUBRU", "lat": 61.40055556, "lon": 7.76166667}, {"name": "TOMBU", "lat": 59.22944444, "lon": 19.56783333}, {"name": "NEBSI", "lat": 58.905, "lon": 20.94138889}, {"name": "MONUS", "lat": 58.91527778, "lon": 27.26388889}, {"name": "DITEL", "lat": 59.05138889, "lon": 27.77111111}, {"name": "OBANA", "lat": 59.27888889, "lon": 28.48833333}, {"name": "LUPUN", "lat": 59.41222222, "lon": 32.02555556}, {"name": "IPRUT", "lat": 59.04388889, "lon": 34.77444444}, {"name": "EZMUB", "lat": 58.58333333, "lon": 35.81666667}, {"name": "AMEGO", "lat": 57.82472222, "lon": 37.80916667}, {"name": "ADUSI", "lat": 57.46666667, "lon": 37.75833333}, {"name": "ROMTA", "lat": 57.10777778, "lon": 37.71194444}, {"name": "UUEE", "lat": 55.97249984741211, "lon": 37.41305541992188}], "facilities": ["CZEG", "BGW", "BIRD", "ESMM-Y", "ULLL", "ENOS-7", "ENOS-1", "ENSV-16", "ESOS-3", "ENSV-17", "ESOS-6", "EETT"]}
{"slot_id": 258173, "dep": "CYYC", "arr": "UUEE", "ctot": "12:42", "route": [{"name": "CYYC", "lat": 51.113887786865234, "lon": -114.02027893066406}, {"name": "AVROM", "lat": 51.48083333, "lon": -113.79694444}, {"name": "DUDSO", "lat": 53.80277778, "lon": -111.83638889}, {"name": "RIDOK", "lat": 57.42861944, "lon": -106.53611111}, {"name": "6098N", "lat": 60.0, "lon": -98.0}, {"name": "YEK", "lat": 61.09909444, "lon": -94.06898333}, {"name": "6480N", "lat": 64.0, "lon": -80.0}, {"name": "EPMAN", "lat": 66.0, "lon": -60.0}, {"name": "6750N", "lat": 67.0, "lon": -50.0}, {"name": "6740N", "lat": 67.0, "lon": -40.0}, {"name": "6630N", "lat": 66.0, "lon": -30.0}, {"name": "6620N", "lat": 66.0, "lon": -20.0}, {"name": "BARUD", "lat": 62.5, "lon": 0.0}, {"name": "NUBRU", "lat": 61.40055556, "lon": 7.76166667}, {"name": "TOMBU", "lat": 59.22944444, "lon": 19.56783333}, {"name": "NEBSI", "lat": 58.905, "lon": 20.94138889}, {"name": "MONUS", "lat": 58.91527778, "lon": 27.26388889}, {"name": "DITEL", "lat": 59.05138889, "lon": 27.77111111}, {"name": "OBANA", "lat": 59.27888889, "lon": 28.48833333}, {"name": "LUPUN", "lat": 59.41222222, "lon": 32.02555556}, {"name": "IPRUT", "lat": 59.04388889, "lon": 34.77444444}, {"name": "EZMUB", "lat": 58.58333333, "lon": 35.81666667}, {"name": "AMEGO", "lat": 57.82472222, "lon": 37.80916667}, {"name": "ADUSI", "lat": 57.46666667, "lon": 37.75833333}, {"name": "ROMTA", "lat": 57.10777778, "lon": 37.71194444}, {"name": "UUEE", "lat": 55.97249984741211, "lon": 37.41305541992188}], "facilities": ["CZEG", "BGW", "BIRD", "ESMM-Y", "ULLL", "ENOS-7", "ENOS-1", "ENSV-16", "ESOS-3", "ENSV-17", "ESOS-6", "EETT"]}
{"slot_id": 258174, "dep": "CYYC", "arr": "UUEE", "ctot": "12:45", "route": [{"name": "CYYC", "lat": 51.113887786865234, "lon": -114.02027893066406}, {"name": "AVROM", "lat": 51.48083333, "lon": -113.79694444}, {"name": "DUDSO", "lat": 53.80277778, "lon": -111.83638889}, {"name": "RIDOK", "lat": 57.42861944, "lon": -106.53611111}, {"name": "6098N", "lat": 60.0, "lon": -98.0}, {"name": "YEK", "lat": 61.09909444, "lon": -94.06898333}, {"name": "6480N", "lat": 64.0, "lon": -80.0}, {"name": "EPMAN", "lat": 66.0, "lon": -60.0}, {"name": "6750N", "lat": 67.0, "lon": -50.0}, {"name": "6740N", "lat": 67.0, "lon": -40.0}, {"name": "6630N", "lat": 66.0, "lon": -30.0}, {"name": "6620N", "lat": 66.0, "lon": -20.0}, {"name": "BARUD", "lat": 62.5, "lon": 0.0}, {"name": "NUBRU", "lat": 61.40055556, "lon": 7.76166667}, {"name": "TOMBU", "lat": 59.22944444, "lon": 19.56783333}, {"name": "NEBSI", "lat": 58.905, "lon": 20.94138889}, {"name": "MONUS", "lat": 58.91527778, "lon": 27.26388889}, {"name": "DITEL", "lat": 59.05138889, "lon": 27.77111111}, {"name": "OBANA", "lat": 59.27888889, "lon": 28.48833333}, {"name": "LUPUN", "lat": 59.41222222, "lon": 32.02555556}, {"name": "IPRUT", "lat": 59.04388889, "lon": 34.77444444}, {"name": "EZMUB", "lat": 58.58333333, "lon": 35.81666667}, {"name": "AMEGO", "lat": 57.82472222, "lon": 37.80916667}, {"name": "ADUSI", "lat": 57.46666667, "lon": 37.75833333}, {"name": "ROMTA", "lat": 57.10777778, "lon": 37.71194444}, {"name": "UUEE", "lat": 55.97249984741211, "lon": 37.41305541992188}], "facilities": ["CZEG", "BGW", "BIRD", "ESMM-Y", "ULLL", "ENOS-7", "ENOS-1", "ENSV-16", "ESOS-3", "ENSV-17", "ESOS-6", "EETT"]}
{"slot_id": 258175, "dep": "CYYC", "arr": "UUEE", "ctot": "12:49", "route": [{"name": "CYYC", "lat": 51.113887786865234, "lon": -114.02027893066406}, {"name": "AVROM", "lat": 51.48083333, "lon": -113.79694444}, {"name": "DUDSO", "lat": 53.80277778, "lon": -111.83638889}, {"name": "RIDOK", "lat": 57.42861944, "lon": -106.53611111}, {"name": "6098N", "lat": 60.0, "lon": -98.0}, {"name": "YEK", "lat": 61.09909444, "lon": -94.06898333}, {"name": "6480N", "lat": 64.0, "lon": -80.0}, {"name": "EPMAN", "lat": 66.0, "lon": -60.0}, {"name": "6750N", "lat": 67.0, "lon": -50.0}, {"name": "6740N", "lat": 67.0, "lon": -40.0}, {"name": "6630N", "lat": 66.0, "lon": -30.0}, {"name": "6620N", "lat": 66.0, "lon": -20.0}, {"name": "BARUD", "lat": 62.5, "lon": 0.0}, {"name": "NUBRU", "lat": 61.40055556, "lon": 7.76166667}, {"name": "TOMBU", "lat": 59.22944444, "lon": 19.56783333}, {"name": "NEBSI", "lat": 58.905, "lon": 20.94138889}, {"name": "MONUS", "lat": 58.91527778, "lon": 27.26388889}, {"name": "DITEL", "lat": 59.05138889, "lon": 27.77111111}, {"name": "OBANA", "lat": 59.27888889, "lon": 28.48833333}, {"name": "LUPUN", "lat": 59.41222222, "lon": 32.02555556}, {"name": "IPRUT", "lat": 59.04388889, "lon": 34.77444444}, {"name": "EZMUB", "lat": 58.58333333, "lon": 35.81666667}, {"name": "AMEGO", "lat": 57.82472222, "lon": 37.80916667}, {"name": "ADUSI", "lat": 57.46666667, "lon": 37.75833333}, {"name": "ROMTA", "lat": 57.10777778, "lon": 37.71194444}, {"name": "UUEE", "lat": 55.97249984741211, "lon": 37.41305541992188}], "facilities": ["CZEG", "BGW", "BIRD", "ESMM-Y", "ULLL", "ENOS-7", "ENOS-1", "ENSV-16", "ESOS-3", "ENSV-17", "ESOS-6", "EETT"]}
{"slot_id": 258176, "dep": "CYYC", "arr": "UUEE", "ctot": "12:52", "route": [{"name": "CYYC", "lat": 51.113887786865234, "lon": -114.02027893066406}, {"name": "AVROM", "lat": 51.48083333, "lon": -113.79694444}, {"name": "DUDSO", "lat": 53.80277778, "lon": -111.83638889}, {"name": "RIDOK", "lat": 57.42861944, "lon": -106.53611111}, {"name": "6098N", "lat": 60.0, "lon": -98.0}, {"name": "YEK", "lat": 61.09909444, "lon": -94.06898333}, {"name": "6480N", "lat": 64.0, "lon": -80.0}, {"name": "EPMAN", "lat": 66.0, "lon": -60.0}, {"name": "6750N", "lat": 67.0, "lon": -50.0}, {"name": "6740N", "lat": 67.0, "lon": -40.0}, {"name": "6630N", "lat": 66.0, "lon": -30.0}, {"name": "6620N", "lat": 66.0, "lon": -20.0}, {"name": "BARUD", "lat": 62.5, "lon": 0.0}, {"name": "NUBRU", "lat": 61.40055556, "lon": 7.76166667}, {"name": "TOMBU", "lat": 59.22944444, "lon": 19.56783333}, {"name": "NEBSI", "lat": 58.905, "lon": 20.94138889}, {"name": "MONUS", "lat": 58.91527778, "lon": 27.26388889}, {"name": "DITEL", "lat": 59.05138889, "lon": 27.77111111}, {"name": "OBANA", "lat": 59.27888889, "lon": 28.48833333}, {"name": "LUPUN", "lat": 59.41222222, "lon": 32.02555556}, {"name": "IPRUT", "lat": 59.04388889, "lon": 34.77444444}, {"name": "EZMUB", "lat": 58.58333333, "lon": 35.81666667}, {"name": "AMEGO", "lat": 57.82472222, "lon": 37.80916667}, {"name": "ADUSI", "lat": 57.46666667, "lon": 37.75833333}, {"name": "ROMTA", "lat": 57.10777778, "lon": 37.71194444}, {"name": "UUEE", "lat": 55.97249984741211, "lon": 37.41305541992188}], "facilities": ["CZEG", "BGW", "BIRD", "ESMM-Y", "ULLL", "ENOS-7", "ENOS-1", "ENSV-16", "ESOS-3", "ENSV-17", "ESOS-6", "EETT"]}
{"slot_id": 258177, "dep": "CYYC", "arr": "UUEE", "ctot": "12:55", "route": [{"name": "CYYC", "lat": 51.113887786865234, "lon": -114.02027893066406}, {"name": "AVROM", "lat": 51.48083333, "lon": -113.79694444}, {"name": "DUDSO", "lat": 53.80277778, "lon": -111.83638889}, {"name": "RIDOK", "lat": 57.42861944, "lon": -106.53611111}, {"name": "6098N", "lat": 60.0, "lon": -98.0}, {"name": "YEK", "lat": 61.09909444, "lon": -94.06898333}, {"name": "6480N", "lat": 64.0, "lon": -80.0}, {"name": "EPMAN", "lat": 66.0, "lon": -60.0}, {"name": "6750N", "lat": 67.0, "lon": -50.0}, {"name": "6740N", "lat": 67.0, "lon": -40.0}, {"name": "6630N", "lat": 66.0, "lon": -30.0}, {"name": "6620N", "lat": 66.0, "lon": -20.0}, {"name": "BARUD", "lat": 62.5, "lon": 0.0}, {"name": "NUBRU", "lat": 61.40055556, "lon": 7.76166667}, {"name": "TOMBU", "lat": 59.22944444, "lon": 19.56783333}, {"name": "NEBSI", "lat": 58.905, "lon": 20.94138889}, {"name": "MONUS", "lat": 58.91527778, "lon": 27.26388889}, {"name": "DITEL", "lat": 59.05138889, "lon": 27.77111111}, {"name": "OBANA", "lat": 59.27888889, "lon": 28.48833333}, {"name": "LUPUN", "lat": 59.41222222, "lon": 32.02555556}, {"name": "IPRUT", "lat": 59.04388889, "lon": 34.77444444}, {"name": "EZMUB", "lat": 58.58333333, "lon": 35.81666667}, {"name": "AMEGO", "lat": 57.82472222, "lon": 37.80916667}, {"name": "ADUSI", "lat": 57.46666667, "lon": 37.75833333}, {"name": "ROMTA", "lat": 57.10777778, "lon": 37.71194444}, {"name": "UUEE", "lat": 55.97249984741211, "lon": 37.41305541992188}], "facilities": ["CZEG", "BGW", "BIRD", "ESMM-Y", "ULLL", "ENOS-7", "ENOS-1", "ENSV-16", "ESOS-3", "ENSV-17", "ESOS-6", "EETT"]}
{"slot_id": 258178, "dep": "CYYC", "arr": "UUEE", "ctot": "13:01", "route": [{"name": "CYYC", "lat": 51.113887786865234, "lon": -114.02027893066406}, {"name": "AVROM", "lat": 51.48083333, "lon": -113.79694444}, {"name": "DUDSO", "lat": 53.80277778, "lon": -111.83638889}, {"name": "RIDOK", "lat": 57.42861944, "lon": -106.53611111}, {"name": "6098N", "lat": 60.0, "lon": -98.0}, {"name": "YEK", "lat": 61.09909444, "lon": -94.06898333}, {"name": "6480N", "lat": 64.0, "lon": -80.0}, {"name": "EPMAN", "lat": 66.0, "lon": -60.0}, {"name": "6750N", "lat": 67.0, "lon": -50.0}, {"name": "6740N", "lat": 67.0, "lon": -40.0}, {"name": "6630N", "lat": 66.0, "lon": -30.0}, {"name": "6620N", "lat": 66.0, "lon": -20.0}, {"name": "BARUD", "lat": 62.5, "lon": 0.0}, {"name": "NUBRU", "lat": 61.40055556, "lon": 7.76166667}, {"name": "TOMBU", "lat": 59.22944444, "lon": 19.56783333}, {"name": "NEBSI", "lat": 58.905, "lon": 20.94138889}, {"name": "MONUS", "lat": 58.91527778, "lon": 27.26388889}, {"name": "DITEL", "lat": 59.05138889, "lon": 27.77111111}, {"name": "OBANA", "lat": 59.27888889, "lon": 28.48833333}, {"name": "LUPUN", "lat": 59.41222222, "lon": 32.02555556}, {"name": "IPRUT", "lat": 59.04388889, "lon": 34.77444444}, {"name": "EZMUB", "lat": 58.58333333, "lon": 35.81666667}, {"name": "AMEGO", "lat": 57.82472222, "lon": 37.80916667}, {"name": "ADUSI", "lat": 57.46666667, "lon": 37.75833333}, {"name": "ROMTA", "lat": 57.10777778, "lon": 37.71194444}, {"name": "UUEE", "lat": 55.97249984741211, "lon": 37.41305541992188}], "facilities": ["CZEG", "BGW", "BIRD", "ESMM-Y", "ULLL", "ENOS-7", "ENOS-1", "ENSV-16", "ESOS-3", "ENSV-17", "ESOS-6", "EETT"]}
{"slot_id": 258179, "dep": "CYYC", "arr": "UUEE", "ctot": "13:04", "route": [{"name": "CYYC", "lat": 51.113887786865234, "lon": -114.02027893066406}, {"name": "AVROM", "lat": 51.48083333, "lon": -113.79694444}, {"name": "DUDSO", "lat": 53.80277778, "lon": -111.83638889}, {"name": "RIDOK", "lat": 57.42861944, "lon": -106.53611111}, {"name": "6098N", "lat": 60.0, "lon": -98.0}, {"name": "YEK", "lat": 61.09909444, "lon": -94.06898333}, {"name": "6480N", "lat": 64.0, "lon": -80.0}, {"name": "EPMAN", "lat": 66.0, "lon": -60.0}, {"name": "6750N", "lat": 67.0, "lon": -50.0}, {"name": "6740N", "lat": 67.0, "lon": -40.0}, {"name": "6630N", "lat": 66.0, "lon": -30.0}, {"name": "6620N", "lat": 66.0, "lon": -20.0}, {"name": "BARUD", "lat": 62.5, "lon": 0.0}, {"name": "NUBRU", "lat": 61.40055556, "lon": 7.76166667}, {"name": "TOMBU", "lat": 59.22944444, "lon": 19.56783333}, {"name": "NEBSI", "lat": 58.905, "lon": 20.94138889}, {"name": "MONUS", "lat": 58.91527778, "lon": 27.26388889}, {"name": "DITEL", "lat": 59.05138889, "lon": 27.77111111}, {"name": "OBANA", "lat": 59.27888889, "lon": 28.48833333}, {"name": "LUPUN", "lat": 59.41222222, "lon": 32.02555556}, {"name": "IPRUT", "lat": 59.04388889, "lon": 34.77444444}, {"name": "EZMUB", "lat": 58.58333333, "lon": 35.81666667}, {"name": "AMEGO", "lat": 57.82472222, "lon": 37.80916667}, {"name": "ADUSI", "lat": 57.46666667, "lon": 37.75833333}, {"name": "ROMTA", "lat": 57.10777778, "lon": 37.71194444}, {"name": "UUEE", "lat": 55.97249984741211, "lon": 37.41305541992188}], "facilities": ["CZEG", "BGW", "BIRD", "ESMM-Y", "ULLL", "ENOS-7", "ENOS-1", "ENSV-16", "ESOS-3", "ENSV-17", "ESOS-6", "EETT"]}
{"slot_id": 258180, "dep": "CYYC", "arr": "UUEE", "ctot": "13:07", "route": [{"name": "CYYC", "lat": 51.113887786865234, "lon": -114.02027893066406}, {"name": "AVROM", "lat": 51.48083333, "lon": -113.79694444}, {"name": "DUDSO", "lat": 53.80277778, "lon": -111.83638889}, {"name": "RIDOK", "lat": 57.42861944, "lon": -106.53611111}, {"name": "6098N", "lat": 60.0, "lon": -98.0}, {"name": "YEK", "lat": 61.09909444, "lon": -94.06898333}, {"name": "6480N", "lat": 64.0, "lon": -80.0}, {"name": "EPMAN", "lat": 66.0, "lon": -60.0}, {"name": "6750N", "lat": 67.0, "lon": -50.0}, {"name": "6740N", "lat": 67.0, "lon": -40.0}, {"name": "6630N", "lat": 66.0, "lon": -30.0}, {"name": "6620N", "lat": 66.0, "lon": -20.0}, {"name": "BARUD", "lat": 62.5, "lon": 0.0}, {"name": "NUBRU", "lat": 61.40055556, "lon": 7.76166667}, {"name": "TOMBU", "lat": 59.22944444, "lon": 19.56783333}, {"name": "NEBSI", "lat": 58.905, "lon": 20.94138889}, {"name": "MONUS", "lat": 58.91527778, "lon": 27.26388889}, {"name": "DITEL", "lat": 59.05138889, "lon": 27.77111111}, {"name": "OBANA", "lat": 59.27888889, "lon": 28.48833333}, {"name": "LUPUN", "lat": 59.41222222, "lon": 32.02555556}, {"name": "IPRUT", "lat": 59.04388889, "lon": 34.77444444}, {"name": "EZMUB", "lat": 58.58333333, "lon": 35.81666667}, {"name": "AMEGO", "lat": 57.82472222, "lon": 37.80916667}, {"name": "ADUSI", "lat": 57.46666667, "lon": 37.75833333}, {"name": "ROMTA", "lat": 57.10777778, "lon": 37.71194444}, {"name": "UUEE", "lat": 55.97249984741211, "lon": 37.41305541992188}], "facilities": ["CZEG", "BGW", "BIRD", "ESMM-Y", "ULLL", "ENOS-7", "ENOS-1", "ENSV-16", "ESOS-3", "ENSV-17", "ESOS-6", "EETT"]}
{"slot_id": 258181, "dep": "CYYC", "arr": "UUEE", "ctot": "13:11", "route": [{"name": "CYYC", "lat": 51.113887786865234, "lon": -114.02027893066406}, {"name": "AVROM", "lat": 51.48083333, "lon": -113.79694444}, {"name": "DUDSO", "lat": 53.80277778, "lon": -111.83638889}, {"name": "RIDOK", "lat": 57.42861944, "lon": -106.53611111}, {"name": "6098N", "lat": 60.0, "lon": -98.0}, {"name": "YEK", "lat": 61.09909444, "lon": -94.06898333}, {"name": "6480N", "lat": 64.0, "lon": -80.0}, {"name": "EPMAN", "lat": 66.0, "lon": -60.0}, {"name": "6750N", "lat": 67.0, "lon": -50.0}, {"name": "6740N", "lat": 67.0, "lon": -40.0}, {"name": "6630N", "lat": 66.0, "lon": -30.0}, {"name": "6620N", "lat": 66.0, "lon": -20.0}, {"name": "BARUD", "lat": 62.5, "lon": 0.0}, {"name": "NUBRU", "lat": 61.40055556, "lon": 7.76166667}, {"name": "TOMBU", "lat": 59.22944444, "lon": 19.56783333}, {"name": "NEBSI", "lat": 58.905, "lon": 20.94138889}, {"name": "MONUS", "lat": 58.91527778, "lon": 27.26388889}, {"name": "DITEL", "lat": 59.05138889, "lon": 27.77111111}, {"name": "OBANA", "lat": 59.27888889, "lon": 28.48833333}, {"name": "LUPUN", "lat": 59.41222222, "lon": 32.02555556}, {"name": "IPRUT", "lat": 59.04388889, "lon": 34.77444444}, {"name": "EZMUB", "lat": 58.58333333, "lon": 35.81666667}, {"name": "AMEGO", "lat": 57.82472222, "lon": 37.80916667}, {"name": "ADUSI", "lat": 57.46666667, "lon": 37.75833333}, {"name": "ROMTA", "lat": 57.10777778, "lon": 37.71194444}, {"name": "UUEE", "lat": 55.97249984741211, "lon": 37.41305541992188}], "facilities": ["CZEG", "BGW", "BIRD", "ESMM-Y", "ULLL", "ENOS-7", "ENOS-1", "ENSV-16", "ESOS-3", "ENSV-17", "ESOS-6", "EETT"]}
{"slot_id": 258182, "dep": "CYYC", "arr": "UUEE", "ctot": "13:14", "route": [{"name": "CYYC", "lat": 51.113887786865234, "lon": -114.02027893066406}, {"name": "AVROM", "lat": 51.48083333, "lon": -113.79694444}, {"name": "DUDSO", "lat": 53.80277778, "lon": -111.83638889}, {"name": "RIDOK", "lat": 57.42861944, "lon": -106.53611111}, {"name": "6098N", "lat": 60.0, "lon": -98.0}, {"name": "YEK", "lat": 61.09909444, "lon": -94.06898333}, {"name": "6480N", "lat": 64.0, "lon": -80.0}, {"name": "EPMAN", "lat": 66.0, "lon": -60.0}, {"name": "6750N", "lat": 67.0, "lon": -50.0}, {"name": "6740N", "lat": 67.0, "lon": -40.0}, {"name": "6630N", "lat": 66.0, "lon": -30.0}, {"name": "6620N", "lat": 66.0, "lon": -20.0}, {"name": "BARUD", "lat": 62.5, "lon": 0.0}, {"name": "NUBRU", "lat": 61.40055556, "lon": 7.76166667}, {"name": "TOMBU", "lat": 59.22944444, "lon": 19.56783333}, {"name": "NEBSI", "lat": 58.905, "lon": 20.94138889}, {"name": "MONUS", "lat": 58.91527778, "lon": 27.26388889}, {"name": "DITEL", "lat": 59.05138889, "lon": 27.77111111}, {"name": "OBANA", "lat": 59.27888889, "lon": 28.48833333}, {"name": "LUPUN", "lat": 59.41222222, "lon": 32.02555556}, {"name": "IPRUT", "lat": 59.04388889, "lon": 34.77444444}, {"name": "EZMUB", "lat": 58.58333333, "lon": 35.81666667}, {"name": "AMEGO", "lat": 57.82472222, "lon": 37.80916667}, {"name": "ADUSI", "lat": 57.46666667, "lon": 37.75833333}, {"name": "ROMTA", "lat": 57.10777778, "lon": 37.71194444}, {"name": "UUEE", "lat": 55.97249984741211, "lon": 37.41305541992188}], "facilities": ["CZEG", "BGW", "BIRD", "ESMM-Y", "ULLL", "ENOS-7", "ENOS-1", "ENSV-16", "ESOS-3", "ENSV-17", "ESOS-6", "EETT"]}
{"slot_id": 258183, "dep": "CYYC", "arr": "UUEE", "ctot": "13:18", "route": [{"name": "CYYC", "lat": 51.113887786865234, "lon": -114.02027893066406}, {"name": "AVROM", "lat": 51.48083333, "lon": -113.79694444}, {"name": "DUDSO", "lat": 53.80277778, "lon": -111.83638889}, {"name": "RIDOK", "lat": 57.42861944, "lon": -106.53611111}, {"name": "6098N", "lat": 60.0, "lon": -98.0}, {"name": "YEK", "lat": 61.09909444, "lon": -94.06898333}, {"name": "6480N", "lat": 64.0, "lon": -80.0}, {"name": "EPMAN", "lat": 66.0, "lon": -60.0}, {"name": "6750N", "lat": 67.0, "lon": -50.0}, {"name": "6740N", "lat": 67.0, "lon": -40.0}, {"name": "6630N", "lat": 66.0, "lon": -30.0}, {"name": "6620N", "lat": 66.0, "lon": -20.0}, {"name": "BARUD", "lat": 62.5, "lon": 0.0}, {"name": "NUBRU", "lat": 61.40055556, "lon": 7.76166667}, {"name": "TOMBU", "lat": 59.22944444, "lon": 19.56783333}, {"name": "NEBSI", "lat": 58.905, "lon": 20.94138889}, {"name": "MONUS", "lat": 58.91527778, "lon": 27.26388889}, {"name": "DITEL", "lat": 59.05138889, "lon": 27.77111111}, {"name": "OBANA", "lat": 59.27888889, "lon": 28.48833333}, {"name": "LUPUN", "lat": 59.41222222, "lon": 32.02555556}, {"name": "IPRUT", "lat": 59.04388889, "lon": 34.77444444}, {"name": "EZMUB", "lat": 58.58333333, "lon": 35.81666667}, {"name": "AMEGO", "lat": 57.82472222, "lon": 37.80916667}, {"name": "ADUSI", "lat": 57.46666667, "lon": 37.75833333}, {"name": "ROMTA", "lat": 57.10777778, "lon": 37.71194444}, {"name": "UUEE", "lat": 55.97249984741211, "lon": 37.41305541992188}], "facilities": ["CZEG", "BGW", "BIRD", "ESMM-Y", "ULLL", "ENOS-7", "ENOS-1", "ENSV-16", "ESOS-3", "ENSV-17", "ESOS-6", "EETT"]}
{"slot_id": 258184, "dep": "CYYC", "arr": "UUEE", "ctot": "13:21", "route": [{"name": "CYYC", "lat": 51.113887786865234, "lon": -114.02027893066406}, {"name": "AVROM", "lat": 51.48083333, "lon": -113.79694444}, {"name": "DUDSO", "lat": 53.80277778, "lon": -111.83638889}, {"name": "RIDOK", "lat": 57.42861944, "lon": -106.53611111}, {"name": "6098N", "lat": 60.0, "lon": -98.0}, {"name": "YEK", "lat": 61.09909444, "lon": -94.06898333}, {"name": "6480N", "lat": 64.0, "lon": -80.0}, {"name": "EPMAN", "lat": 66.0, "lon": -60.0}, {"name": "6750N", "lat": 67.0, "lon": -50.0}, {"name": "6740N", "lat": 67.0, "lon": -40.0}, {"name": "6630N", "lat": 66.0, "lon": -30.0}, {"name": "6620N", "lat": 66.0, "lon": -20.0}, {"name": "BARUD", "lat": 62.5, "lon": 0.0}, {"name": "NUBRU", "lat": 61.40055556, "lon": 7.76166667}, {"name": "TOMBU", "lat": 59.22944444, "lon": 19.56783333}, {"name": "NEBSI", "lat": 58.905, "lon": 20.94138889}, {"name": "MONUS", "lat": 58.91527778, "lon": 27.26388889}, {"name": "DITEL", "lat": 59.05138889, "lon": 27.77111111}, {"name": "OBANA", "lat": 59.27888889, "lon": 28.48833333}, {"name": "LUPUN", "lat": 59.41222222, "lon": 32.02555556}, {"name": "IPRUT", "lat": 59.04388889, "lon": 34.77444444}, {"name": "EZMUB", "lat": 58.58333333, "lon": 35.81666667}, {"name": "AMEGO", "lat": 57.82472222, "lon": 37.80916667}, {"name": "ADUSI", "lat": 57.46666667, "lon": 37.75833333}, {"name": "ROMTA", "lat": 57.10777778, "lon": 37.71194444}, {"name": "UUEE", "lat": 55.97249984741211, "lon": 37.41305541992188}], "facilities": ["CZEG", "BGW", "BIRD", "ESMM-Y", "ULLL", "ENOS-7", "ENOS-1", "ENSV-16", "ESOS-3", "ENSV-17", "ESOS-6", "EETT"]}
{"slot_id": 258185, "dep": "CYYC", "arr": "UUEE", "ctot": "13:28", "route": [{"name": "CYYC", "lat": 51.113887786865234, "lon": -114.02027893066406}, {"name": "AVROM", "lat": 51.48083333, "lon": -113.79694444}, {"name": "DUDSO", "lat": 53.80277778, "lon": -111.83638889}, {"name": "RIDOK", "lat": 57.42861944, "lon": -106.53611111}, {"name": "6098N", "lat": 60.0, "lon": -98.0}, {"name": "YEK", "lat": 61.09909444, "lon": -94.06898333}, {"name": "6480N", "lat": 64.0, "lon": -80.0}, {"name": "EPMAN", "lat": 66.0, "lon": -60.0}, {"name": "6750N", "lat": 67.0, "lon": -50.0}, {"name": "6740N", "lat": 67.0, "lon": -40.0}, {"name": "6630N", "lat": 66.0, "lon": -30.0}, {"name": "6620N", "lat": 66.0, "lon": -20.0}, {"name": "BARUD", "lat": 62.5, "lon": 0.0}, {"name": "NUBRU", "lat": 61.40055556, "lon": 7.76166667}, {"name": "TOMBU", "lat": 59.22944444, "lon": 19.56783333}, {"name": "NEBSI", "lat": 58.905, "lon": 20.94138889}, {"name": "MONUS", "lat": 58.91527778, "lon": 27.26388889}, {"name": "DITEL", "lat": 59.05138889, "lon": 27.77111111}, {"name": "OBANA", "lat": 59.27888889, "lon": 28.48833333}, {"name": "LUPUN", "lat": 59.41222222, "lon": 32.02555556}, {"name": "IPRUT", "lat": 59.04388889, "lon": 34.77444444}, {"name": "EZMUB", "lat": 58.58333333, "lon": 35.81666667}, {"name": "AMEGO", "lat": 57.82472222, "lon": 37.80916667}, {"name": "ADUSI", "lat": 57.46666667, "lon": 37.75833333}, {"name": "ROMTA", "lat": 57.10777778, "lon": 37.71194444}, {"name": "UUEE", "lat": 55.97249984741211, "lon": 37.41305541992188}], "facilities": ["CZEG", "BGW", "BIRD", "ESMM-Y", "ULLL", "ENOS-7", "ENOS-1", "ENSV-16", "ESOS-3", "ENSV-17", "ESOS-6", "EETT"]}
{"slot_id": 258186, "dep": "CYYC", "arr": "UUEE", "ctot": "13:31", "route": [{"name": "CYYC", "lat": 51.113887786865234, "lon": -114.02027893066406}, {"name": "AVROM", "lat": 51.48083333, "lon": -113.79694444}, {"name": "DUDSO", "lat": 53.80277778, "lon": -111.83638889}, {"name": "RIDOK", "lat": 57.42861944, "lon": -106.53611111}, {"name": "6098N", "lat": 60.0, "lon": -98.0}, {"name": "YEK", "lat": 61.09909444, "lon": -94.06898333}, {"name": "6480N", "lat": 64.0, "lon": -80.0}, {"name": "EPMAN", "lat": 66.0, "lon": -60.0}, {"name": "6750N", "lat": 67.0, "lon": -50.0}, {"name": "6740N", "lat": 67.0, "lon": -40.0}, {"name": "6630N", "lat": 66.0, "lon": -30.0}, {"name": "6620N", "lat": 66.0, "lon": -20.0}, {"name": "BARUD", "lat": 62.5, "lon": 0.0}, {"name": "NUBRU", "lat": 61.40055556, "lon": 7.76166667}, {"name": "TOMBU", "lat": 59.22944444, "lon": 19.56783333}, {"name": "NEBSI", "lat": 58.905, "lon": 20.94138889}, {"name": "MONUS", "lat": 58.91527778, "lon": 27.26388889}, {"name": "DITEL", "lat": 59.05138889, "lon": 27.77111111}, {"name": "OBANA", "lat": 59.27888889, "lon": 28.48833333}, {"name": "LUPUN", "lat": 59.41222222, "lon": 32.02555556}, {"name": "IPRUT", "lat": 59.04388889, "lon": 34.77444444}, {"name": "EZMUB", "lat": 58.58333333, "lon": 35.81666667}, {"name": "AMEGO", "lat": 57.82472222, "lon": 37.80916667}, {"name": "ADUSI", "lat": 57.46666667, "lon": 37.75833333}, {"name": "ROMTA", "lat": 57.10777778, "lon": 37.71194444}, {"name": "UUEE", "lat": 55.97249984741211, "lon": 37.41305541992188}], "facilities": ["CZEG", "BGW", "BIRD", "ESMM-Y", "ULLL", "ENOS-7", "ENOS-1", "ENSV-16", "ESOS-3", "ENSV-17", "ESOS-6", "EETT"]}
{"slot_id": 258187, "dep": "CYYC", "arr": "UUEE", "ctot": "13:35", "route": [{"name": "CYYC", "lat": 51.113887786865234, "lon": -114.02027893066406}, {"name": "AVROM", "lat": 51.48083333, "lon": -113.79694444}, {"name": "DUDSO", "lat": 53.80277778, "lon": -111.83638889}, {"name": "RIDOK", "lat": 57.42861944, "lon": -106.53611111}, {"name": "6098N", "lat": 60.0, "lon": -98.0}, {"name": "YEK", "lat": 61.09909444, "lon": -94.06898333}, {"name": "6480N", "lat": 64.0, "lon": -80.0}, {"name": "EPMAN", "lat": 66.0, "lon": -60.0}, {"name": "6750N", "lat": 67.0, "lon": -50.0}, {"name": "6740N", "lat": 67.0, "lon": -40.0}, {"name": "6630N", "lat": 66.0, "lon": -30.0}, {"name": "6620N", "lat": 66.0, "lon": -20.0}, {"name": "BARUD", "lat": 62.5, "lon": 0.0}, {"name": "NUBRU", "lat": 61.40055556, "lon": 7.76166667}, {"name": "TOMBU", "lat": 59.22944444, "lon": 19.56783333}, {"name": "NEBSI", "lat": 58.905, "lon": 20.94138889}, {"name": "MONUS", "lat": 58.91527778, "lon": 27.26388889}, {"name": "DITEL", "lat": 59.05138889, "lon": 27.77111111}, {"name": "OBANA", "lat": 59.27888889, "lon": 28.48833333}, {"name": "LUPUN", "lat": 59.41222222, "lon": 32.02555556}, {"name": "IPRUT", "lat": 59.04388889, "lon": 34.77444444}, {"name": "EZMUB", "lat": 58.58333333, "lon": 35.81666667}, {"name": "AMEGO", "lat": 57.82472222, "lon": 37.80916667}, {"name": "ADUSI", "lat": 57.46666667, "lon": 37.75833333}, {"name": "ROMTA", "lat": 57.10777778, "lon": 37.71194444}, {"name": "UUEE", "lat": 55.97249984741211, "lon": 37.41305541992188}], "facilities": ["CZEG", "BGW", "BIRD", "ESMM-Y", "ULLL", "ENOS-7", "ENOS-1", "ENSV-16", "ESOS-3", "ENSV-17", "ESOS-6", "EETT"]}
{"slot_id": 258188, "dep": "CYYC", "arr": "UUEE", "ctot": "13:38", "route": [{"name": "CYYC", "lat": 51.113887786865234, "lon": -114.02027893066406}, {"name": "AVROM", "lat": 51.48083333, "lon": -113.79694444}, {"name": "DUDSO", "lat": 53.80277778, "lon": -111.83638889}, {"name": "RIDOK", "lat": 57.42861944, "lon": -106.53611111}, {"name": "6098N", "lat": 60.0, "lon": -98.0}, {"name": "YEK", "lat": 61.09909444, "lon": -94.06898333}, {"name": "6480N", "lat": 64.0, "lon": -80.0}, {"name": "EPMAN", "lat": 66.0, "lon": -60.0}, {"name": "6750N", "lat": 67.0, "lon": -50.0}, {"name": "6740N", "lat": 67.0, "lon": -40.0}, {"name": "6630N", "lat": 66.0, "lon": -30.0}, {"name": "6620N", "lat": 66.0, "lon": -20.0}, {"name": "BARUD", "lat": 62.5, "lon": 0.0}, {"name": "NUBRU", "lat": 61.40055556, "lon": 7.76166667}, {"name": "TOMBU", "lat": 59.22944444, "lon": 19.56783333}, {"name": "NEBSI", "lat": 58.905, "lon": 20.94138889}, {"name": "MONUS", "lat": 58.91527778, "lon": 27.26388889}, {"name": "DITEL", "lat": 59.05138889, "lon": 27.77111111}, {"name": "OBANA", "lat": 59.27888889, "lon": 28.48833333}, {"name": "LUPUN", "lat": 59.41222222, "lon": 32.02555556}, {"name": "IPRUT", "lat": 59.04388889, "lon": 34.77444444}, {"name": "EZMUB", "lat": 58.58333333, "lon": 35.81666667}, {"name": "AMEGO", "lat": 57.82472222, "lon": 37.80916667}, {"name": "ADUSI", "lat": 57.46666667, "lon": 37.75833333}, {"name": "ROMTA", "lat": 57.10777778, "lon": 37.71194444}, {"name": "UUEE", "lat": 55.97249984741211, "lon": 37.41305541992188}], "facilities": ["CZEG", "BGW", "BIRD", "ESMM-Y", "ULLL", "ENOS-7", "ENOS-1", "ENSV-16", "ESOS-3", "ENSV-17", "ESOS-6", "EETT"]}
{"slot_id": 258189, "dep": "CYYC", "arr": "UUEE", "ctot": "13:42", "route": [{"name": "CYYC", "lat": 51.113887786865234, "lon": -114.02027893066406}, {"name": "AVROM", "lat": 51.48083333, "lon": -113.79694444}, {"name": "DUDSO", "lat": 53.80277778, "lon": -111.83638889}, {"name": "RIDOK", "lat": 57.42861944, "lon": -106.53611111}, {"name": "6098N", "lat": 60.0, "lon": -98.0}, {"name": "YEK", "lat": 61.09909444, "lon": -94.06898333}, {"name": "6480N", "lat": 64.0, "lon": -80.0}, {"name": "EPMAN", "lat": 66.0, "lon": -60.0}, {"name": "6750N", "lat": 67.0, "lon": -50.0}, {"name": "6740N", "lat": 67.0, "lon": -40.0}, {"name": "6630N", "lat": 66.0, "lon": -30.0}, {"name": "6620N", "lat": 66.0, "lon": -20.0}, {"name": "BARUD", "lat": 62.5, "lon": 0.0}, {"name": "NUBRU", "lat": 61.40055556, "lon": 7.76166667}, {"name": "TOMBU", "lat": 59.22944444, "lon": 19.56783333}, {"name": "NEBSI", "lat": 58.905, "lon": 20.94138889}, {"name": "MONUS", "lat": 58.91527778, "lon": 27.26388889}, {"name": "DITEL", "lat": 59.05138889, "lon": 27.77111111}, {"name": "OBANA", "lat": 59.27888889, "lon": 28.48833333}, {"name": "LUPUN", "lat": 59.41222222, "lon": 32.02555556}, {"name": "IPRUT", "lat": 59.04388889, "lon": 34.77444444}, {"name": "EZMUB", "lat": 58.58333333, "lon": 35.81666667}, {"name": "AMEGO", "lat": 57.82472222, "lon": 37.80916667}, {"name": "ADUSI", "lat": 57.46666667, "lon": 37.75833333}, {"name": "ROMTA", "lat": 57.10777778, "lon": 37.71194444}, {"name": "UUEE", "lat": 55.97249984741211, "lon": 37.41305541992188}], "facilities": ["CZEG", "BGW", "BIRD", "ESMM-Y", "ULLL", "ENOS-7", "ENOS-1", "ENSV-16", "ESOS-3", "ENSV-17", "ESOS-6", "EETT"]}
{"slot_id": 258190, "dep": "CYYC", "arr": "UUEE", "ctot": "13:45", "route": [{"name": "CYYC", "lat": 51.113887786865234, "lon": -114.02027893066406}, {"name": "AVROM", "lat": 51.48083333, "lon": -113.79694444}, {"name": "DUDSO", "lat": 53.80277778, "lon": -111.83638889}, {"name": "RIDOK", "lat": 57.42861944, "lon": -106.53611111}, {"name": "6098N", "lat": 60.0, "lon": -98.0}, {"name": "YEK", "lat": 61.09909444, "lon": -94.06898333}, {"name": "6480N", "lat": 64.0, "lon": -80.0}, {"name": "EPMAN", "lat": 66.0, "lon": -60.0}, {"name": "6750N", "lat": 67.0, "lon": -50.0}, {"name": "6740N", "lat": 67.0, "lon": -40.0}, {"name": "6630N", "lat": 66.0, "lon": -30.0}, {"name": "6620N", "lat": 66.0, "lon": -20.0}, {"name": "BARUD", "lat": 62.5, "lon": 0.0}, {"name": "NUBRU", "lat": 61.40055556, "lon": 7.76166667}, {"name": "TOMBU", "lat": 59.22944444, "lon": 19.56783333}, {"name": "NEBSI", "lat": 58.905, "lon": 20.94138889}, {"name": "MONUS", "lat": 58.91527778, "lon": 27.26388889}, {"name": "DITEL", "lat": 59.05138889, "lon": 27.77111111}, {"name": "OBANA", "lat": 59.27888889, "lon": 28.48833333}, {"name": "LUPUN", "lat": 59.41222222, "lon": 32.02555556}, {"name": "IPRUT", "lat": 59.04388889, "lon": 34.77444444}, {"name": "EZMUB", "lat": 58.58333333, "lon": 35.81666667}, {"name": "AMEGO", "lat": 57.82472222, "lon": 37.80916667}, {"name": "ADUSI", "lat": 57.46666667, "lon": 37.75833333}, {"name": "ROMTA", "lat": 57.10777778, "lon": 37.71194444}, {"name": "UUEE", "lat": 55.97249984741211, "lon": 37.41305541992188}], "facilities": ["CZEG", "BGW", "BIRD", "ESMM-Y", "ULLL", "ENOS-7", "ENOS-1", "ENSV-16", "ESOS-3", "ENSV-17", "ESOS-6", "EETT"]}
{"slot_id": 258191, "dep": "CYYC", "arr": "UUEE", "ctot": "13:49", "route": [{"name": "CYYC", "lat": 51.113887786865234, "lon": -114.02027893066406}, {"name": "AVROM", "lat": 51.48083333, "lon": -113.79694444}, {"name": "DUDSO", "lat": 53.80277778, "lon": -111.83638889}, {"name": "RIDOK", "lat": 57.42861944, "lon": -106.53611111}, {"name": "6098N", "lat": 60.0, "lon": -98.0}, {"name": "YEK", "lat": 61.09909444, "lon": -94.06898333}, {"name": "6480N", "lat": 64.0, "lon": -80.0}, {"name": "EPMAN", "lat": 66.0, "lon": -60.0}, {"name": "6750N", "lat": 67.0, "lon": -50.0}, {"name": "6740N", "lat": 67.0, "lon": -40.0}, {"name": "6630N", "lat": 66.0, "lon": -30.0}, {"name": "6620N", "lat": 66.0, "lon": -20.0}, {"name": "BARUD", "lat": 62.5, "lon": 0.0}, {"name": "NUBRU", "lat": 61.40055556, "lon": 7.76166667}, {"name": "TOMBU", "lat": 59.22944444, "lon": 19.56783333}, {"name": "NEBSI", "lat": 58.905, "lon": 20.94138889}, {"name": "MONUS", "lat": 58.91527778, "lon": 27.26388889}, {"name": "DITEL", "lat": 59.05138889, "lon": 27.77111111}, {"name": "OBANA", "lat": 59.27888889, "lon": 28.48833333}, {"name": "LUPUN", "lat": 59.41222222, "lon": 32.02555556}, {"name": "IPRUT", "lat": 59.04388889, "lon": 34.77444444}, {"name": "EZMUB", "lat": 58.58333333, "lon": 35.81666667}, {"name": "AMEGO", "lat": 57.82472222, "lon": 37.80916667}, {"name": "ADUSI", "lat": 57.46666667, "lon": 37.75833333}, {"name": "ROMTA", "lat": 57.10777778, "lon": 37.71194444}, {"name": "UUEE", "lat": 55.97249984741211, "lon": 37.41305541992188}], "facilities": ["CZEG", "BGW", "BIRD", "ESMM-Y", "ULLL", "ENOS-7", "ENOS-1", "ENSV-16", "ESOS-3", "ENSV-17", "ESOS-6", "EETT"]}
{"slot_id": 258192, "dep": "CYYC", "arr": "UUEE", "ctot": "13:52", "route": [{"name": "CYYC", "lat": 51.113887786865234, "lon": -114.02027893066406}, {"name": "AVROM", "lat": 51.48083333, "lon": -113.79694444}, {"name": "DUDSO", "lat": 53.80277778, "lon": -111.83638889}, {"name": "RIDOK", "lat": 57.42861944, "lon": -106.53611111}, {"name": "6098N", "lat": 60.0, "lon": -98.0}, {"name": "YEK", "lat": 61.09909444, "lon": -94.06898333}, {"name": "6480N", "lat": 64.0, "lon": -80.0}, {"name": "EPMAN", "lat": 66.0, "lon": -60.0}, {"name": "6750N", "lat": 67.0, "lon": -50.0}, {"name": "6740N", "lat": 67.0, "lon": -40.0}, {"name": "6630N", "lat": 66.0, "lon": -30.0}, {"name": "6620N", "lat": 66.0, "lon": -20.0}, {"name": "BARUD", "lat": 62.5, "lon": 0.0}, {"name": "NUBRU", "lat": 61.40055556, "lon": 7.76166667}, {"name": "TOMBU", "lat": 59.22944444, "lon": 19.56783333}, {"name": "NEBSI", "lat": 58.905, "lon": 20.94138889}, {"name": "MONUS", "lat": 58.91527778, "lon": 27.26388889}, {"name": "DITEL", "lat": 59.05138889, "lon": 27.77111111}, {"name": "OBANA", "lat": 59.27888889, "lon": 28.48833333}, {"name": "LUPUN", "lat": 59.41222222, "lon": 32.02555556}, {"name": "IPRUT", "lat": 59.04388889, "lon": 34.77444444}, {"name": "EZMUB", "lat": 58.58333333, "lon": 35.81666667}, {"name": "AMEGO", "lat": 57.82472222, "lon": 37.80916667}, {"name": "ADUSI", "lat": 57.46666667, "lon": 37.75833333}, {"name": "ROMTA", "lat": 57.10777778, "lon": 37.71194444}, {"name": "UUEE", "lat": 55.97249984741211, "lon": 37.41305541992188}], "facilities": ["CZEG", "BGW", "BIRD", "ESMM-Y", "ULLL", "ENOS-7", "ENOS-1", "ENSV-16", "ESOS-3", "ENSV-17", "ESOS-6", "EETT"]}
{"slot_id": 258193, "dep": "CYYC", "arr": "UUEE", "ctot": "13:55", "route": [{"name": "CYYC", "lat": 51.113887786865234, "lon": -114.02027893066406}, {"name": "AVROM", "lat": 51.48083333, "lon": -113.79694444}, {"name": "DUDSO", "lat": 53.80277778, "lon": -111.83638889}, {"name": "RIDOK", "lat": 57.42861944, "lon": -106.53611111}, {"name": "6098N", "lat": 60.0, "lon": -98.0}, {"name": "YEK", "lat": 61.09909444, "lon": -94.06898333}, {"name": "6480N", "lat": 64.0, "lon": -80.0}, {"name": "EPMAN", "lat": 66.0, "lon": -60.0}, {"name": "6750N", "lat": 67.0, "lon": -50.0}, {"name": "6740N", "lat": 67.0, "lon": -40.0}, {"name": "6630N", "lat": 66.0, "lon": -30.0}, {"name": "6620N", "lat": 66.0, "lon": -20.0}, {"name": "BARUD", "lat": 62.5, "lon": 0.0}, {"name": "NUBRU", "lat": 61.40055556, "lon": 7.76166667}, {"name": "TOMBU", "lat": 59.22944444, "lon": 19.56783333}, {"name": "NEBSI", "lat": 58.905, "lon": 20.94138889}, {"name": "MONUS", "lat": 58.91527778, "lon": 27.26388889}, {"name": "DITEL", "lat": 59.05138889, "lon": 27.77111111}, {"name": "OBANA", "lat": 59.27888889, "lon": 28.48833333}, {"name": "LUPUN", "lat": 59.41222222, "lon": 32.02555556}, {"name": "IPRUT", "lat": 59.04388889, "lon": 34.77444444}, {"name": "EZMUB", "lat": 58.58333333, "lon": 35.81666667}, {"name": "AMEGO", "lat": 57.82472222, "lon": 37.80916667}, {"name": "ADUSI", "lat": 57.46666667, "lon": 37.75833333}, {"name": "ROMTA", "lat": 57.10777778, "lon": 37.71194444}, {"name": "UUEE", "lat": 55.97249984741211, "lon": 37.41305541992188}], "facilities": ["CZEG", "BGW", "BIRD", "ESMM-Y", "ULLL", "ENOS-7", "ENOS-1", "ENSV-16", "ESOS-3", "ENSV-17", "ESOS-6", "EETT"]}
{"slot_id": 258194, "dep": "CYYC", "arr": "UUEE", "ctot": "14:01", "route": [{"name": "CYYC", "lat": 51.113887786865234, "lon": -114.02027893066406}, {"name": "AVROM", "lat": 51.48083333, "lon": -113.79694444}, {"name": "DUDSO", "lat": 53.80277778, "lon": -111.83638889}, {"name": "RIDOK", "lat": 57.42861944, "lon": -106.53611111}, {"name": "6098N", "lat": 60.0, "lon": -98.0}, {"name": "YEK", "lat": 61.09909444, "lon": -94.06898333}, {"name": "6480N", "lat": 64.0, "lon": -80.0}, {"name": "EPMAN", "lat": 66.0, "lon": -60.0}, {"name": "6750N", "lat": 67.0, "lon": -50.0}, {"name": "6740N", "lat": 67.0, "lon": -40.0}, {"name": "6630N", "lat": 66.0, "lon": -30.0}, {"name": "6620N", "lat": 66.0, "lon": -20.0}, {"name": "BARUD", "lat": 62.5, "lon": 0.0}, {"name": "NUBRU", "lat": 61.40055556, "lon": 7.76166667}, {"name": "TOMBU", "lat": 59.22944444, "lon": 19.56783333}, {"name": "NEBSI", "lat": 58.905, "lon": 20.94138889}, {"name": "MONUS", "lat": 58.91527778, "lon": 27.26388889}, {"name": "DITEL", "lat": 59.05138889, "lon": 27.77111111}, {"name": "OBANA", "lat": 59.27888889, "lon": 28.48833333}, {"name": "LUPUN", "lat": 59.41222222, "lon": 32.02555556}, {"name": "IPRUT", "lat": 59.04388889, "lon": 34.77444444}, {"name": "EZMUB", "lat": 58.58333333, "lon": 35.81666667}, {"name": "AMEGO", "lat": 57.82472222, "lon": 37.80916667}, {"name": "ADUSI", "lat": 57.46666667, "lon": 37.75833333}, {"name": "ROMTA", "lat": 57.10777778, "lon": 37.71194444}, {"name": "UUEE", "lat": 55.97249984741211, "lon": 37.41305541992188}], "facilities": ["CZEG", "BGW", "BIRD", "ESMM-Y", "ULLL", "ENOS-7", "ENOS-1", "ENSV-16", "ESOS-3", "ENSV-17", "ESOS-6", "EETT"]}
{"slot_id": 258195, "dep": "CYYC", "arr": "UUEE", "ctot": "14:04", "route": [{"name": "CYYC", "lat": 51.113887786865234, "lon": -114.02027893066406}, {"name": "AVROM", "lat": 51.48083333, "lon": -113.79694444}, {"name": "DUDSO", "lat": 53.80277778, "lon": -111.83638889}, {"name": "RIDOK", "lat": 57.42861944, "lon": -106.53611111}, {"name": "6098N", "lat": 60.0, "lon": -98.0}, {"name": "YEK", "lat": 61.09909444, "lon": -94.06898333}, {"name": "6480N", "lat": 64.0, "lon": -80.0}, {"name": "EPMAN", "lat": 66.0, "lon": -60.0}, {"name": "6750N", "lat": 67.0, "lon": -50.0}, {"name": "6740N", "lat": 67.0, "lon": -40.0}, {"name": "6630N", "lat": 66.0, "lon": -30.0}, {"name": "6620N", "lat": 66.0, "lon": -20.0}, {"name": "BARUD", "lat": 62.5, "lon": 0.0}, {"name": "NUBRU", "lat": 61.40055556, "lon": 7.76166667}, {"name": "TOMBU", "lat": 59.22944444, "lon": 19.56783333}, {"name": "NEBSI", "lat": 58.905, "lon": 20.94138889}, {"name": "MONUS", "lat": 58.91527778, "lon": 27.26388889}, {"name": "DITEL", "lat": 59.05138889, "lon": 27.77111111}, {"name": "OBANA", "lat": 59.27888889, "lon": 28.48833333}, {"name": "LUPUN", "lat": 59.41222222, "lon": 32.02555556}, {"name": "IPRUT", "lat": 59.04388889, "lon": 34.77444444}, {"name": "EZMUB", "lat": 58.58333333, "lon": 35.81666667}, {"name": "AMEGO", "lat": 57.82472222, "lon": 37.80916667}, {"name": "ADUSI", "lat": 57.46666667, "lon": 37.75833333}, {"name": "ROMTA", "lat": 57.10777778, "lon": 37.71194444}, {"name": "UUEE", "lat": 55.97249984741211, "lon": 37.41305541992188}], "facilities": ["CZEG", "BGW", "BIRD", "ESMM-Y", "ULLL", "ENOS-7", "ENOS-1", "ENSV-16", "ESOS-3", "ENSV-17", "ESOS-6", "EETT"]}
{"slot_id": 258196, "dep": "CYYC", "arr": "EHAM", "ctot": "11:50", "route": [{"name": "CYYC", "lat": 51.113887786865234, "lon": -114.02027893066406}, {"name": "LOMLO", "lat": 51.06972222, "lon": -113.38666667}, {"name": "POLLE", "lat": 54.77444444, "lon": -103.83333333}, {"name": "5890N", "lat": 58.0, "lon": -90.0}, {"name": "6080N", "lat": 60.0, "lon": -80.0}, {"name": "TUNNI", "lat": 60.0, "lon": -70.0}, {"name": "JELCO", "lat": 60.7, "lon": -67.0}, {"name": "GRIBS", "lat": 61.5, "lon": -63.0}, {"name": "KETLA", "lat": 62.46666667, "lon": -58.0}, {"name": "6350N", "lat": 63.0, "lon": -50.0}, {"name": "6340N", "lat": 63.0, "lon": -40.0}, {"name": "6230N", "lat": 62.0, "lon": -30.0}, {"name": "6220N", "lat": 62.0, "lon": -20.0}, {"name": "6215N", "lat": 62.0, "lon": -15.0}, {"name": "MATIK", "lat": 61.0, "lon": -8.06666667}, {"name": "BESGA", "lat": 60.78958889, "lon": -7.91270833}, {"name": "ARTEX", "lat": 56.894825, "lon": 3.96068611}, {"name": "MOKUM", "lat": 54.48416667, "lon": 6.09333333}, {"name": "BLUFA", "lat": 52.83625, "lon": 6.33333333}, {"name": "EHAM", "lat": 52.30805587768555, "lon": 4.764166831970215}], "facilities": ["QX6", "CZEG", "CZUL", "CZQX", "BGW", "BIRD", "CZQO", "EGPX-HEB", "EGPX-MOR", "EKDK-N", "EDYY-J", "EHAA-1", "EHAA-A"]}
{"slot_id": 258197, "dep": "CYYC", "arr": "EHAM", "ctot": "12:04", "route": [{"name": "CYYC", "lat": 51.113887786865234, "lon": -114.02027893066406}, {"name": "LOMLO", "lat": 51.06972222, "lon": -113.38666667}, {"name": "POLLE", "lat": 54.77444444, "lon": -103.83333333}, {"name": "5890N", "lat": 58.0, "lon": -90.0}, {"name": "6080N", "lat": 60.0, "lon": -80.0}, {"name": "TUNNI", "lat": 60.0, "lon": -70.0}, {"name": "JELCO", "lat": 60.7, "lon": -67.0}, {"name": "GRIBS", "lat": 61.5, "lon": -63.0}, {"name": "KETLA", "lat": 62.46666667, "lon": -58.0}, {"name": "6350N", "lat": 63.0, "lon": -50.0}, {"name": "6340N", "lat": 63.0, "lon": -40.0}, {"name": "6230N", "lat": 62.0, "lon": -30.0}, {"name": "6220N", "lat": 62.0, "lon": -20.0}, {"name": "6215N", "lat": 62.0, "lon": -15.0}, {"name": "MATIK", "lat": 61.0, "lon": -8.06666667}, {"name": "BESGA", "lat": 60.78958889, "lon": -7.91270833}, {"name": "ARTEX", "lat": 56.894825, "lon": 3.96068611}, {"name": "MOKUM", "lat": 54.48416667, "lon": 6.09333333}, {"name": "BLUFA", "lat": 52.83625, "lon": 6.33333333}, {"name": "EHAM", "lat": 52.30805587768555, "lon": 4.764166831970215}], "facilities": ["QX6", "CZEG", "CZUL", "CZQX", "BGW", "BIRD", "CZQO", "EGPX-HEB", "EGPX-MOR", "EKDK-N", "EDYY-J", "EHAA-1", "EHAA-A"]}
{"slot_id": 258198, "dep": "CYYC", "arr": "EHAM", "ctot": "12:11", "route": [{"name": "CYYC", "lat": 51.113887786865234, "lon": -114.02027893066406}, {"name": "LOMLO", "lat": 51.06972222, "lon": -113.38666667}, {"name": "POLLE", "lat": 54.77444444, "lon": -103.83333333}, {"name": "5890N", "lat": 58.0, "lon": -90.0}, {"name": "6080N", "lat": 60.0, "lon": -80.0}, {"name": "TUNNI", "lat": 60.0, "lon": -70.0}, {"name": "JELCO", "lat": 60.7, "lon": -67.0}, {"name": "GRIBS", "lat": 61.5, "lon": -63.0}, {"name": "KETLA", "lat": 62.46666667, "lon": -58.0}, {"name": "6350N", "lat": 63.0, "lon": -50.0}, {"name": "6340N", "lat": 63.0, "lon": -40.0}, {"name": "6230N", "lat": 62.0, "lon": -30.0}, {"name": "6220N", "lat": 62.0, "lon": -20.0}, {"name": "6215N", "lat": 62.0, "lon": -15.0}, {"name": "MATIK", "lat": 61.0, "lon": -8.06666667}, {"name": "BESGA", "lat": 60.78958889, "lon": -7.91270833}, {"name": "ARTEX", "lat": 56.894825, "lon": 3.96068611}, {"name": "MOKUM", "lat": 54.48416667, "lon": 6.09333333}, {"name": "BLUFA", "lat": 52.83625, "lon": 6.33333333}, {"name": "EHAM", "lat": 52.30805587768555, "lon": 4.764166831970215}], "facilities": ["QX6", "CZEG", "CZUL", "CZQX", "BGW", "BIRD", "CZQO", "EGPX-HEB", "EGPX-MOR", "EKDK-N", "EDYY-J", "EHAA-1", "EHAA-A"]}
{"slot_id": 258199, "dep": "CYYC", "arr": "EHAM", "ctot": "12:21", "route": [{"name": "CYYC", "lat": 51.113887786865234, "lon": -114.02027893066406}, {"name": "LOMLO", "lat": 51.06972222, "lon": -113.38666667}, {"name": "POLLE", "lat": 54.77444444, "lon": -103.83333333}, {"name": "5890N", "lat": 58.0, "lon": -90.0}, {"name": "6080N", "lat": 60.0, "lon": -80.0}, {"name": "TUNNI", "lat": 60.0, "lon": -70.0}, {"name": "JELCO", "lat": 60.7, "lon": -67.0}, {"name": "GRIBS", "lat": 61.5, "lon": -63.0}, {"name": "KETLA", "lat": 62.46666667, "lon": -58.0}, {"name": "6350N", "lat": 63.0, "lon": -50.0}, {"name": "6340N", "lat": 63.0, "lon": -40.0}, {"name": "6230N", "lat": 62.0, "lon": -30.0}, {"name": "6220N", "lat": 62.0, "lon": -20.0}, {"name": "6215N", "lat": 62.0, "lon": -15.0}, {"name": "MATIK", "lat": 61.0, "lon": -8.06666667}, {"name": "BESGA", "lat": 60.78958889, "lon": -7.91270833}, {"name": "ARTEX", "lat": 56.894825, "lon": 3.96068611}, {"name": "MOKUM", "lat": 54.48416667, "lon": 6.09333333}, {"name": "BLUFA", "lat": 52.83625, "lon": 6.33333333}, {"name": "EHAM", "lat": 52.30805587768555, "lon": 4.764166831970215}], "facilities": ["QX6", "CZEG", "CZUL", "CZQX", "BGW", "BIRD", "CZQO", "EGPX-HEB", "EGPX-MOR", "EKDK-N", "EDYY-J", "EHAA-1", "EHAA-A"]}
{"slot_id": 258200, "dep": "CYYC", "arr": "EHAM", "ctot": "12:35", "route": [{"name": "CYYC", "lat": 51.113887786865234, "lon": -114.02027893066406}, {"name": "LOMLO", "lat": 51.06972222, "lon": -113.38666667}, {"name": "POLLE", "lat": 54.77444444, "lon": -103.83333333}, {"name": "5890N", "lat": 58.0, "lon": -90.0}, {"name": "6080N", "lat": 60.0, "lon": -80.0}, {"name": "TUNNI", "lat": 60.0, "lon": -70.0}, {"name": "JELCO", "lat": 60.7, "lon": -67.0}, {"name": "GRIBS", "lat": 61.5, "lon": -63.0}, {"name": "KETLA", "lat": 62.46666667, "lon": -58.0}, {"name": "6350N", "lat": 63.0, "lon": -50.0}, {"name": "6340N", "lat": 63.0, "lon": -40.0}, {"name": "6230N", "lat": 62.0, "lon": -30.0}, {"name": "6220N", "lat": 62.0, "lon": -20.0}, {"name": "6215N", "lat": 62.0, "lon": -15.0}, {"name": "MATIK", "lat": 61.0, "lon": -8.06666667}, {"name": "BESGA", "lat": 60.78958889, "lon": -7.91270833}, {"name": "ARTEX", "lat": 56.894825, "lon": 3.96068611}, {"name": "MOKUM", "lat": 54.48416667, "lon": 6.09333333}, {"name": "BLUFA", "lat": 52.83625, "lon": 6.33333333}, {"name": "EHAM", "lat": 52.30805587768555, "lon": 4.764166831970215}], "facilities": ["QX6", "CZEG", "CZUL", "CZQX", "BGW", "BIRD", "CZQO", "EGPX-HEB", "EGPX-MOR", "EKDK-N", "EDYY-J", "EHAA-1", "EHAA-A"]}
{"slot_id": 258201, "dep": "CYYC", "arr": "EHAM", "ctot": "12:47", "route": [{"name": "CYYC", "lat": 51.113887786865234, "lon": -114.02027893066406}, {"name": "LOMLO", "lat": 51.06972222, "lon": -113.38666667}, {"name": "POLLE", "lat": 54.77444444, "lon": -103.83333333}, {"name": "5890N", "lat": 58.0, "lon": -90.0}, {"name": "6080N", "lat": 60.0, "lon": -80.0}, {"name": "TUNNI", "lat": 60.0, "lon": -70.0}, {"name": "JELCO", "lat": 60.7, "lon": -67.0}, {"name": "GRIBS", "lat": 61.5, "lon": -63.0}, {"name": "KETLA", "lat": 62.46666667, "lon": -58.0}, {"name": "6350N", "lat": 63.0, "lon": -50.0}, {"name": "6340N", "lat": 63.0, "lon": -40.0}, {"name": "6230N", "lat": 62.0, "lon": -30.0}, {"name": "6220N", "lat": 62.0, "lon": -20.0}, {"name": "6215N", "lat": 62.0, "lon": -15.0}, {"name": "MATIK", "lat": 61.0, "lon": -8.06666667}, {"name": "BESGA", "lat": 60.78958889, "lon": -7.91270833}, {"name": "ARTEX", "lat": 56.894825, "lon": 3.96068611}, {"name": "MOKUM", "lat": 54.48416667, "lon": 6.09333333}, {"name": "BLUFA", "lat": 52.83625, "lon": 6.33333333},